{
"type": "FeatureCollection",
"name": "ツキノワグマ出没状況",
"crs": { "type": "name", "properties": { "name": "urn:ogc:def:crs:OGC:1.3:CRS84" } },
"features": [
{ "type": "Feature", "properties": { "Name": "東通村尻労地区　R5.6.16", "description": "１頭目撃", "timestamp": null, "begin": null, "end": null, "altitudeMode": null, "tessellate": -1, "extrude": 0, "visibility": -1, "drawOrder": null, "icon": null }, "geometry": { "type": "Point", "coordinates": [ 141.4093521, 41.3586078, 0.0 ] } },
{ "type": "Feature", "properties": { "Name": "東通村白糠地区　R5.6.23", "description": "１頭目撃", "timestamp": null, "begin": null, "end": null, "altitudeMode": null, "tessellate": -1, "extrude": 0, "visibility": -1, "drawOrder": null, "icon": null }, "geometry": { "type": "Point", "coordinates": [ 141.3745901, 41.1729109, 0.0 ] } },
{ "type": "Feature", "properties": { "Name": "東通村田屋地区　R5.6.28", "description": "１頭目撃", "timestamp": null, "begin": null, "end": null, "altitudeMode": null, "tessellate": -1, "extrude": 0, "visibility": -1, "drawOrder": null, "icon": null }, "geometry": { "type": "Point", "coordinates": [ 141.2511739, 41.2672519, 0.0 ] } },
{ "type": "Feature", "properties": { "Name": "東通村田屋地区　R5.8.21", "description": "１頭目撃", "timestamp": null, "begin": null, "end": null, "altitudeMode": null, "tessellate": -1, "extrude": 0, "visibility": -1, "drawOrder": null, "icon": null }, "geometry": { "type": "Point", "coordinates": [ 141.251131, 41.2672197, 0.0 ] } },
{ "type": "Feature", "properties": { "Name": "東通村大利地区　R5.6.28", "description": "１頭目撃", "timestamp": null, "begin": null, "end": null, "altitudeMode": null, "tessellate": -1, "extrude": 0, "visibility": -1, "drawOrder": null, "icon": null }, "geometry": { "type": "Point", "coordinates": [ 141.232150600000011, 41.3129941, 0.0 ] } },
{ "type": "Feature", "properties": { "Name": "東通村大利地区　R5.7.19", "description": "食害被害", "timestamp": null, "begin": null, "end": null, "altitudeMode": null, "tessellate": -1, "extrude": 0, "visibility": -1, "drawOrder": null, "icon": null }, "geometry": { "type": "Point", "coordinates": [ 141.2410155, 41.3226911, 0.0 ] } },
{ "type": "Feature", "properties": { "Name": "東通村大利地区　R5.7.19", "description": "食害被害", "timestamp": null, "begin": null, "end": null, "altitudeMode": null, "tessellate": -1, "extrude": 0, "visibility": -1, "drawOrder": null, "icon": null }, "geometry": { "type": "Point", "coordinates": [ 141.2500583, 41.3204204, 0.0 ] } },
{ "type": "Feature", "properties": { "Name": "東通村岩谷地区　R5.7.24", "description": "１頭目撃", "timestamp": null, "begin": null, "end": null, "altitudeMode": null, "tessellate": -1, "extrude": 0, "visibility": -1, "drawOrder": null, "icon": null }, "geometry": { "type": "Point", "coordinates": [ 141.3892132, 41.3746204, 0.0 ] } },
{ "type": "Feature", "properties": { "Name": "東通村小田野沢地区　R5.7.26", "description": "１頭目撃", "timestamp": null, "begin": null, "end": null, "altitudeMode": null, "tessellate": -1, "extrude": 0, "visibility": -1, "drawOrder": null, "icon": null }, "geometry": { "type": "Point", "coordinates": [ 141.3772533, 41.1961367, 0.0 ] } },
{ "type": "Feature", "properties": { "Name": "東通村大利地区　R5.7.28", "description": "食害被害", "timestamp": null, "begin": null, "end": null, "altitudeMode": null, "tessellate": -1, "extrude": 0, "visibility": -1, "drawOrder": null, "icon": null }, "geometry": { "type": "Point", "coordinates": [ 141.248155, 41.3178466, 0.0 ] } },
{ "type": "Feature", "properties": { "Name": "東通村田屋地区　R5.7.29", "description": "食害被害", "timestamp": null, "begin": null, "end": null, "altitudeMode": null, "tessellate": -1, "extrude": 0, "visibility": -1, "drawOrder": null, "icon": null }, "geometry": { "type": "Point", "coordinates": [ 141.2838122, 41.2705125, 0.0 ] } },
{ "type": "Feature", "properties": { "Name": "東通村田屋地区　R5.7.29", "description": "食害被害", "timestamp": null, "begin": null, "end": null, "altitudeMode": null, "tessellate": -1, "extrude": 0, "visibility": -1, "drawOrder": null, "icon": null }, "geometry": { "type": "Point", "coordinates": [ 141.2515244, 41.2667763, 0.0 ] } },
{ "type": "Feature", "properties": { "Name": "東通村田屋地区　R5.8.4", "description": "食害被害", "timestamp": null, "begin": null, "end": null, "altitudeMode": null, "tessellate": -1, "extrude": 0, "visibility": -1, "drawOrder": null, "icon": null }, "geometry": { "type": "Point", "coordinates": [ 141.26628740000001, 41.2446349, 0.0 ] } },
{ "type": "Feature", "properties": { "Name": "東通村野牛地区　R5.8.7", "description": "食害被害", "timestamp": null, "begin": null, "end": null, "altitudeMode": null, "tessellate": -1, "extrude": 0, "visibility": -1, "drawOrder": null, "icon": null }, "geometry": { "type": "Point", "coordinates": [ 141.369815100000011, 41.3347031, 0.0 ] } },
{ "type": "Feature", "properties": { "Name": "むつ市田名部地区　　R5.1.26", "description": "クマ１頭目撃", "timestamp": null, "begin": null, "end": null, "altitudeMode": null, "tessellate": -1, "extrude": 0, "visibility": -1, "drawOrder": null, "icon": null }, "geometry": { "type": "Point", "coordinates": [ 141.2277008, 41.289331, 0.0 ] } },
{ "type": "Feature", "properties": { "Name": "むつ市大畑町地区　　R5.5.16", "description": "恐山橋付近で、クマにおそわれ頭部を負傷", "timestamp": null, "begin": null, "end": null, "altitudeMode": null, "tessellate": -1, "extrude": 0, "visibility": -1, "drawOrder": null, "icon": null }, "geometry": { "type": "Point", "coordinates": [ 141.098518500000011, 41.330425, 0.0 ] } },
{ "type": "Feature", "properties": { "Name": "南部町大字森越地区　R5.4.10", "description": "クマ1頭目撃", "timestamp": null, "begin": null, "end": null, "altitudeMode": null, "tessellate": -1, "extrude": 0, "visibility": -1, "drawOrder": null, "icon": null }, "geometry": { "type": "Point", "coordinates": [ 141.382326799999987, 40.4230222, 0.0 ] } },
{ "type": "Feature", "properties": { "Name": "深浦町驫木地区　R5.4.11", "description": "小グマ1頭目撃", "timestamp": null, "begin": null, "end": null, "altitudeMode": null, "tessellate": -1, "extrude": 0, "visibility": -1, "drawOrder": null, "icon": null }, "geometry": { "type": "Point", "coordinates": [ 140.044434599999988, 40.6962282, 0.0 ] } },
{ "type": "Feature", "properties": { "Name": "蓬田村蓬田地区　R5.4.12", "description": "クマ1頭目撃", "timestamp": null, "begin": null, "end": null, "altitudeMode": null, "tessellate": -1, "extrude": 0, "visibility": -1, "drawOrder": null, "icon": null }, "geometry": { "type": "Point", "coordinates": [ 140.6227855, 40.9782665, 0.0 ] } },
{ "type": "Feature", "properties": { "Name": "八戸市南郷島守地区　R5.4.17", "description": "クマ1頭目撃", "timestamp": null, "begin": null, "end": null, "altitudeMode": null, "tessellate": -1, "extrude": 0, "visibility": -1, "drawOrder": null, "icon": null }, "geometry": { "type": "Point", "coordinates": [ 141.5047937, 40.3932017, 0.0 ] } },
{ "type": "Feature", "properties": { "Name": "十和田市奥瀬地区　R5.4.18", "description": "クマ1頭目撃", "timestamp": null, "begin": null, "end": null, "altitudeMode": null, "tessellate": -1, "extrude": 0, "visibility": -1, "drawOrder": null, "icon": null }, "geometry": { "type": "Point", "coordinates": [ 140.9574658, 40.5363444, 0.0 ] } },
{ "type": "Feature", "properties": { "Name": "佐井村佐井地区　R5.4.18", "description": "クマ1頭目撃", "timestamp": null, "begin": null, "end": null, "altitudeMode": null, "tessellate": -1, "extrude": 0, "visibility": -1, "drawOrder": null, "icon": null }, "geometry": { "type": "Point", "coordinates": [ 140.874393199999986, 41.3998567, 0.0 ] } },
{ "type": "Feature", "properties": { "Name": "六戸町犬落瀬地区　R5.4.20", "description": "クマ1頭目撃", "timestamp": null, "begin": null, "end": null, "altitudeMode": null, "tessellate": -1, "extrude": 0, "visibility": -1, "drawOrder": null, "icon": null }, "geometry": { "type": "Point", "coordinates": [ 141.3365087, 40.6511621, 0.0 ] } },
{ "type": "Feature", "properties": { "Name": "階上町道仏地区　R5.4.22", "description": "クマ1頭目撃", "timestamp": null, "begin": null, "end": null, "altitudeMode": null, "tessellate": -1, "extrude": 0, "visibility": -1, "drawOrder": null, "icon": null }, "geometry": { "type": "Point", "coordinates": [ 141.645528500000012, 40.4491725, 0.0 ] } },
{ "type": "Feature", "properties": { "Name": "青森市荒川地区　R5.4.23", "description": "クマ1頭目撃", "timestamp": null, "begin": null, "end": null, "altitudeMode": null, "tessellate": -1, "extrude": 0, "visibility": -1, "drawOrder": null, "icon": null }, "geometry": { "type": "Point", "coordinates": [ 140.8334841, 40.6818125, 0.0 ] } },
{ "type": "Feature", "properties": { "Name": "平川市切明地区　R5.4.24", "description": "クマ1頭目撃", "timestamp": null, "begin": null, "end": null, "altitudeMode": null, "tessellate": -1, "extrude": 0, "visibility": -1, "drawOrder": null, "icon": null }, "geometry": { "type": "Point", "coordinates": [ 140.7439105, 40.5026957, 0.0 ] } },
{ "type": "Feature", "properties": { "Name": "階上町赤保内地区　R5.4.25", "description": "クマ1頭目撃", "timestamp": null, "begin": null, "end": null, "altitudeMode": null, "tessellate": -1, "extrude": 0, "visibility": -1, "drawOrder": null, "icon": null }, "geometry": { "type": "Point", "coordinates": [ 141.6198599, 40.4379948, 0.0 ] } },
{ "type": "Feature", "properties": { "Name": "青森市浪岡王余魚沢地区　R5.4.25", "description": "クマ1頭目撃", "timestamp": null, "begin": null, "end": null, "altitudeMode": null, "tessellate": -1, "extrude": 0, "visibility": -1, "drawOrder": null, "icon": null }, "geometry": { "type": "Point", "coordinates": [ 140.65340040000001, 40.7262882, 0.0 ] } },
{ "type": "Feature", "properties": { "Name": "八戸市北インター工業団地地区　　　Ｒ5.4.28", "description": "クマ1頭目撃", "timestamp": null, "begin": null, "end": null, "altitudeMode": null, "tessellate": -1, "extrude": 0, "visibility": -1, "drawOrder": null, "icon": null }, "geometry": { "type": "Point", "coordinates": [ 141.4294478, 40.5594951, 0.0 ] } },
{ "type": "Feature", "properties": { "Name": "青森市矢田地区　Ｒ5.4.28", "description": "クマ1頭目撃", "timestamp": null, "begin": null, "end": null, "altitudeMode": null, "tessellate": -1, "extrude": 0, "visibility": -1, "drawOrder": null, "icon": null }, "geometry": { "type": "Point", "coordinates": [ 140.848701799999986, 40.8448481, 0.0 ] } },
{ "type": "Feature", "properties": { "Name": "弘前市百沢地区　Ｒ5.5.1", "description": "クマ1頭目撃", "timestamp": null, "begin": null, "end": null, "altitudeMode": null, "tessellate": -1, "extrude": 0, "visibility": -1, "drawOrder": null, "icon": null }, "geometry": { "type": "Point", "coordinates": [ 140.3290891, 40.6293665, 0.0 ] } },
{ "type": "Feature", "properties": { "Name": "弘前市百沢地区　Ｒ5.5.2", "description": "クマ1頭目撃", "timestamp": null, "begin": null, "end": null, "altitudeMode": null, "tessellate": -1, "extrude": 0, "visibility": -1, "drawOrder": null, "icon": null }, "geometry": { "type": "Point", "coordinates": [ 140.2990318, 40.6533341, 0.0 ] } },
{ "type": "Feature", "properties": { "Name": "八戸市櫛引地区　Ｒ5.5.2", "description": "クマ1頭目撃", "timestamp": null, "begin": null, "end": null, "altitudeMode": null, "tessellate": -1, "extrude": 0, "visibility": -1, "drawOrder": null, "icon": null }, "geometry": { "type": "Point", "coordinates": [ 141.437429900000012, 40.4645416, 0.0 ] } },
{ "type": "Feature", "properties": { "Name": "青森市細越地区　Ｒ5.5.7", "description": "クマ1頭目撃", "timestamp": null, "begin": null, "end": null, "altitudeMode": null, "tessellate": -1, "extrude": 0, "visibility": -1, "drawOrder": null, "icon": null }, "geometry": { "type": "Point", "coordinates": [ 140.7036579, 40.7719018, 0.0 ] } },
{ "type": "Feature", "properties": { "Name": "青森市浅虫地区　Ｒ5.5.8", "description": "クマ1頭目撃", "timestamp": null, "begin": null, "end": null, "altitudeMode": null, "tessellate": -1, "extrude": 0, "visibility": -1, "drawOrder": null, "icon": null }, "geometry": { "type": "Point", "coordinates": [ 140.8653155, 40.8865677, 0.0 ] } },
{ "type": "Feature", "properties": { "Name": "外ヶ浜町蟹田地区　Ｒ5.5.8", "description": "クマ1頭目撃", "timestamp": null, "begin": null, "end": null, "altitudeMode": null, "tessellate": -1, "extrude": 0, "visibility": -1, "drawOrder": null, "icon": null }, "geometry": { "type": "Point", "coordinates": [ 140.61631, 41.0406483, 0.0 ] } },
{ "type": "Feature", "properties": { "Name": "青森市浅虫地区　Ｒ5.5.9", "description": "クマ1頭目撃", "timestamp": null, "begin": null, "end": null, "altitudeMode": null, "tessellate": -1, "extrude": 0, "visibility": -1, "drawOrder": null, "icon": null }, "geometry": { "type": "Point", "coordinates": [ 140.8711209, 40.8860696, 0.0 ] } },
{ "type": "Feature", "properties": { "Name": "南部町斗賀地区　Ｒ5.5.4", "description": "クマ1頭目撃", "timestamp": null, "begin": null, "end": null, "altitudeMode": null, "tessellate": -1, "extrude": 0, "visibility": -1, "drawOrder": null, "icon": null }, "geometry": { "type": "Point", "coordinates": [ 141.3415556, 40.4555236, 0.0 ] } },
{ "type": "Feature", "properties": { "Name": "南部町上名久井地区　Ｒ5.5.6", "description": "クマ1頭目撃", "timestamp": null, "begin": null, "end": null, "altitudeMode": null, "tessellate": -1, "extrude": 0, "visibility": -1, "drawOrder": null, "icon": null }, "geometry": { "type": "Point", "coordinates": [ 141.33526, 40.3967204, 0.0 ] } },
{ "type": "Feature", "properties": { "Name": "十和田市米田地区　Ｒ5.5.10", "description": "クマ1頭目撃", "timestamp": null, "begin": null, "end": null, "altitudeMode": null, "tessellate": -1, "extrude": 0, "visibility": -1, "drawOrder": null, "icon": null }, "geometry": { "type": "Point", "coordinates": [ 141.2699211, 40.5581729, 0.0 ] } },
{ "type": "Feature", "properties": { "Name": "平川市広船地区　Ｒ5.5.11", "description": "クマ1頭目撃", "timestamp": null, "begin": null, "end": null, "altitudeMode": null, "tessellate": -1, "extrude": 0, "visibility": -1, "drawOrder": null, "icon": null }, "geometry": { "type": "Point", "coordinates": [ 140.628045500000013, 40.5630801, 0.0 ] } },
{ "type": "Feature", "properties": { "Name": "風間浦村蛇浦地区　Ｒ5.5.11", "description": "子グマ1頭、親グマ1頭目撃", "timestamp": null, "begin": null, "end": null, "altitudeMode": null, "tessellate": -1, "extrude": 0, "visibility": -1, "drawOrder": null, "icon": null }, "geometry": { "type": "Point", "coordinates": [ 140.958490500000011, 41.5113312, 0.0 ] } },
{ "type": "Feature", "properties": { "Name": "東北町夫雑原地区　Ｒ5.5.12", "description": "クマ1頭目撃", "timestamp": null, "begin": null, "end": null, "altitudeMode": null, "tessellate": -1, "extrude": 0, "visibility": -1, "drawOrder": null, "icon": null }, "geometry": { "type": "Point", "coordinates": [ 141.1609411, 40.8148677, 0.0 ] } },
{ "type": "Feature", "properties": { "Name": "平川市唐竹地区　R5.5.17", "description": "クマ1頭目撃", "timestamp": null, "begin": null, "end": null, "altitudeMode": null, "tessellate": -1, "extrude": 0, "visibility": -1, "drawOrder": null, "icon": null }, "geometry": { "type": "Point", "coordinates": [ 140.601457900000014, 40.5646779, 0.0 ] } },
{ "type": "Feature", "properties": { "Name": "弘前市百沢地区　R5.5.17", "description": "クマ1頭目撃", "timestamp": null, "begin": null, "end": null, "altitudeMode": null, "tessellate": -1, "extrude": 0, "visibility": -1, "drawOrder": null, "icon": null }, "geometry": { "type": "Point", "coordinates": [ 140.3718261, 40.6488544, 0.0 ] } },
{ "type": "Feature", "properties": { "Name": "弘前市細越地区　R5.5.17", "description": "クマ1頭目撃", "timestamp": null, "begin": null, "end": null, "altitudeMode": null, "tessellate": -1, "extrude": 0, "visibility": -1, "drawOrder": null, "icon": null }, "geometry": { "type": "Point", "coordinates": [ 140.4098904, 40.6365545, 0.0 ] } },
{ "type": "Feature", "properties": { "Name": "南部町剣吉地区　R5.5.17", "description": "クマ1頭目撃", "timestamp": null, "begin": null, "end": null, "altitudeMode": null, "tessellate": -1, "extrude": 0, "visibility": -1, "drawOrder": null, "icon": null }, "geometry": { "type": "Point", "coordinates": [ 141.3206281, 40.4544187, 0.0 ] } },
{ "type": "Feature", "properties": { "Name": "青森市久栗坂地区　R5.5.18", "description": "クマ1頭目撃", "timestamp": null, "begin": null, "end": null, "altitudeMode": null, "tessellate": -1, "extrude": 0, "visibility": -1, "drawOrder": null, "icon": null }, "geometry": { "type": "Point", "coordinates": [ 140.8437902, 40.8606024, 0.0 ] } },
{ "type": "Feature", "properties": { "Name": "むつ市大湊宇田町地区　R5.5.18", "description": "クマ1頭目撃", "timestamp": null, "begin": null, "end": null, "altitudeMode": null, "tessellate": -1, "extrude": 0, "visibility": -1, "drawOrder": null, "icon": null }, "geometry": { "type": "Point", "coordinates": [ 141.1419855, 41.2593363, 0.0 ] } },
{ "type": "Feature", "properties": { "Name": "弘前市百沢地区　R5.5.19", "description": "クマ1頭目撃", "timestamp": null, "begin": null, "end": null, "altitudeMode": null, "tessellate": -1, "extrude": 0, "visibility": -1, "drawOrder": null, "icon": null }, "geometry": { "type": "Point", "coordinates": [ 140.365013, 40.6592881, 0.0 ] } },
{ "type": "Feature", "properties": { "Name": "青森市駒込地区　R5.5.22", "description": "子グマ1頭目撃", "timestamp": null, "begin": null, "end": null, "altitudeMode": null, "tessellate": -1, "extrude": 0, "visibility": -1, "drawOrder": null, "icon": null }, "geometry": { "type": "Point", "coordinates": [ 140.913425, 40.6953587, 0.0 ] } },
{ "type": "Feature", "properties": { "Name": "青森市浪岡王余魚沢地区　R5.5.22", "description": "クマ1頭目撃", "timestamp": null, "begin": null, "end": null, "altitudeMode": null, "tessellate": -1, "extrude": 0, "visibility": -1, "drawOrder": null, "icon": null }, "geometry": { "type": "Point", "coordinates": [ 140.6814487, 40.7338673, 0.0 ] } },
{ "type": "Feature", "properties": { "Name": "十和田市切田地区　R5.5.22", "description": "クマ1頭目撃", "timestamp": null, "begin": null, "end": null, "altitudeMode": null, "tessellate": -1, "extrude": 0, "visibility": -1, "drawOrder": null, "icon": null }, "geometry": { "type": "Point", "coordinates": [ 141.1533915, 40.5698518, 0.0 ] } },
{ "type": "Feature", "properties": { "Name": "十和田市相坂地区　R5.5.22", "description": "クマ1頭目撃", "timestamp": null, "begin": null, "end": null, "altitudeMode": null, "tessellate": -1, "extrude": 0, "visibility": -1, "drawOrder": null, "icon": null }, "geometry": { "type": "Point", "coordinates": [ 141.2589964, 40.6274153, 0.0 ] } },
{ "type": "Feature", "properties": { "Name": "むつ市大湊大川守地区　R5.5.23", "description": "クマ1頭目撃", "timestamp": null, "begin": null, "end": null, "altitudeMode": null, "tessellate": -1, "extrude": 0, "visibility": -1, "drawOrder": null, "icon": null }, "geometry": { "type": "Point", "coordinates": [ 141.1377252, 41.2626882, 0.0 ] } },
{ "type": "Feature", "properties": { "Name": "弘前市中別所地区　R5.5.23", "description": "クマ1頭目撃", "timestamp": null, "begin": null, "end": null, "altitudeMode": null, "tessellate": -1, "extrude": 0, "visibility": -1, "drawOrder": null, "icon": null }, "geometry": { "type": "Point", "coordinates": [ 140.387964, 40.6577908, 0.0 ] } },
{ "type": "Feature", "properties": { "Name": "むつ市大畑町伊勢堂地区　R5.5.24", "description": "クマ1頭目撃", "timestamp": null, "begin": null, "end": null, "altitudeMode": null, "tessellate": -1, "extrude": 0, "visibility": -1, "drawOrder": null, "icon": null }, "geometry": { "type": "Point", "coordinates": [ 141.1687556, 41.4034302, 0.0 ] } },
{ "type": "Feature", "properties": { "Name": "弘前市石川地区　R5.6.8", "description": "60代女性がクマに襲われ手足を負傷", "timestamp": null, "begin": null, "end": null, "altitudeMode": null, "tessellate": -1, "extrude": 0, "visibility": -1, "drawOrder": null, "icon": null }, "geometry": { "type": "Point", "coordinates": [ 140.5289567, 40.5500959, 0.0 ] } },
{ "type": "Feature", "properties": { "Name": "平川市碇ケ関岩井地区　R5.5.24", "description": "1頭目撃", "timestamp": null, "begin": null, "end": null, "altitudeMode": null, "tessellate": -1, "extrude": 0, "visibility": -1, "drawOrder": null, "icon": null }, "geometry": { "type": "Point", "coordinates": [ 140.6348854, 40.463097, 0.0 ] } },
{ "type": "Feature", "properties": { "Name": "南部町高瀬地区　R5.5.17", "description": "1頭目撃", "timestamp": null, "begin": null, "end": null, "altitudeMode": null, "tessellate": -1, "extrude": 0, "visibility": -1, "drawOrder": null, "icon": null }, "geometry": { "type": "Point", "coordinates": [ 141.325567799999988, 40.3983371, 0.0 ] } },
{ "type": "Feature", "properties": { "Name": "南部町剣吉地区　R5.5.24", "description": "1頭目撃", "timestamp": null, "begin": null, "end": null, "altitudeMode": null, "tessellate": -1, "extrude": 0, "visibility": -1, "drawOrder": null, "icon": null }, "geometry": { "type": "Point", "coordinates": [ 141.320041, 40.4464812, 0.0 ] } },
{ "type": "Feature", "properties": { "Name": "弘前市紙漉沢地区　R5.5.25", "description": "1頭目撃", "timestamp": null, "begin": null, "end": null, "altitudeMode": null, "tessellate": -1, "extrude": 0, "visibility": -1, "drawOrder": null, "icon": null }, "geometry": { "type": "Point", "coordinates": [ 140.3815837, 40.583728, 0.0 ] } },
{ "type": "Feature", "properties": { "Name": "弘前市国吉地区　R5.5.25", "description": "1頭目撃", "timestamp": null, "begin": null, "end": null, "altitudeMode": null, "tessellate": -1, "extrude": 0, "visibility": -1, "drawOrder": null, "icon": null }, "geometry": { "type": "Point", "coordinates": [ 140.366384, 40.5963186, 0.0 ] } },
{ "type": "Feature", "properties": { "Name": "青森市横内地区　R5.5.27", "description": "1頭目撃", "timestamp": null, "begin": null, "end": null, "altitudeMode": null, "tessellate": -1, "extrude": 0, "visibility": -1, "drawOrder": null, "icon": null }, "geometry": { "type": "Point", "coordinates": [ 140.7690852, 40.7754457, 0.0 ] } },
{ "type": "Feature", "properties": { "Name": "青森市幸畑地区　R5.5.28", "description": "1頭目撃", "timestamp": null, "begin": null, "end": null, "altitudeMode": null, "tessellate": -1, "extrude": 0, "visibility": -1, "drawOrder": null, "icon": null }, "geometry": { "type": "Point", "coordinates": [ 140.790911200000011, 40.7802208, 0.0 ] } },
{ "type": "Feature", "properties": { "Name": "弘前市坂元地区　R5.5.22", "description": "1頭目撃", "timestamp": null, "begin": null, "end": null, "altitudeMode": null, "tessellate": -1, "extrude": 0, "visibility": -1, "drawOrder": null, "icon": null }, "geometry": { "type": "Point", "coordinates": [ 140.4383298, 40.5460284, 0.0 ] } },
{ "type": "Feature", "properties": { "Name": "佐井村佐井地区　R5.5.25", "description": "1頭目撃", "timestamp": null, "begin": null, "end": null, "altitudeMode": null, "tessellate": -1, "extrude": 0, "visibility": -1, "drawOrder": null, "icon": null }, "geometry": { "type": "Point", "coordinates": [ 140.868081499999988, 41.4319719, 0.0 ] } },
{ "type": "Feature", "properties": { "Name": "弘前市中野地区　R5.5.30", "description": "1頭目撃", "timestamp": null, "begin": null, "end": null, "altitudeMode": null, "tessellate": -1, "extrude": 0, "visibility": -1, "drawOrder": null, "icon": null }, "geometry": { "type": "Point", "coordinates": [ 140.3193499, 40.5883021, 0.0 ] } },
{ "type": "Feature", "properties": { "Name": "弘前市百沢地区　R5.5.30", "description": "1頭目撃", "timestamp": null, "begin": null, "end": null, "altitudeMode": null, "tessellate": -1, "extrude": 0, "visibility": -1, "drawOrder": null, "icon": null }, "geometry": { "type": "Point", "coordinates": [ 140.3175349, 40.6155694, 0.0 ] } },
{ "type": "Feature", "properties": { "Name": "南部町平地区　R5.5.26", "description": "食害被害", "timestamp": null, "begin": null, "end": null, "altitudeMode": null, "tessellate": -1, "extrude": 0, "visibility": -1, "drawOrder": null, "icon": null }, "geometry": { "type": "Point", "coordinates": [ 141.3542, 40.4055319, 0.0 ] } },
{ "type": "Feature", "properties": { "Name": "八戸市南郷大森地区", "description": "1頭目撃", "timestamp": null, "begin": null, "end": null, "altitudeMode": null, "tessellate": -1, "extrude": 0, "visibility": -1, "drawOrder": null, "icon": null }, "geometry": { "type": "Point", "coordinates": [ 141.4402009, 40.3833096, 0.0 ] } },
{ "type": "Feature", "properties": { "Name": "八戸市是川地区　R5.5.12", "description": "1頭目撃（足跡のみ）", "timestamp": null, "begin": null, "end": null, "altitudeMode": null, "tessellate": -1, "extrude": 0, "visibility": -1, "drawOrder": null, "icon": null }, "geometry": { "type": "Point", "coordinates": [ 141.4727744, 40.4703861, 0.0 ] } },
{ "type": "Feature", "properties": { "Name": "八戸市南郷島守地区　R5.5.12", "description": "食害被害", "timestamp": null, "begin": null, "end": null, "altitudeMode": null, "tessellate": -1, "extrude": 0, "visibility": -1, "drawOrder": null, "icon": null }, "geometry": { "type": "Point", "coordinates": [ 141.5201035, 40.3871271, 0.0 ] } },
{ "type": "Feature", "properties": { "Name": "六戸町下吉田地区　R5.6.1", "description": "1頭目撃", "timestamp": null, "begin": null, "end": null, "altitudeMode": null, "tessellate": -1, "extrude": 0, "visibility": -1, "drawOrder": null, "icon": null }, "geometry": { "type": "Point", "coordinates": [ 141.3713107, 40.5798425, 0.0 ] } },
{ "type": "Feature", "properties": { "Name": "安治川町舞戸地区　R5.5.20", "description": "1頭目撃", "timestamp": null, "begin": null, "end": null, "altitudeMode": null, "tessellate": -1, "extrude": 0, "visibility": -1, "drawOrder": null, "icon": null }, "geometry": { "type": "Point", "coordinates": [ 140.218622399999987, 40.7696103, 0.0 ] } },
{ "type": "Feature", "properties": { "Name": "鯵ヶ沢町舞戸地区　R5.5.20", "description": "1頭目撃", "timestamp": null, "begin": null, "end": null, "altitudeMode": null, "tessellate": -1, "extrude": 0, "visibility": -1, "drawOrder": null, "icon": null }, "geometry": { "type": "Point", "coordinates": [ 140.2308294, 40.7809778, 0.0 ] } },
{ "type": "Feature", "properties": { "Name": "鯵ヶ沢町舞戸地区　R5.5.21", "description": "1頭目撃", "timestamp": null, "begin": null, "end": null, "altitudeMode": null, "tessellate": -1, "extrude": 0, "visibility": -1, "drawOrder": null, "icon": null }, "geometry": { "type": "Point", "coordinates": [ 140.231063, 40.7809799, 0.0 ] } },
{ "type": "Feature", "properties": { "Name": "鯵ヶ沢町姥袋町地区　R5.5.31", "description": "1頭目撃（足跡のみ）", "timestamp": null, "begin": null, "end": null, "altitudeMode": null, "tessellate": -1, "extrude": 0, "visibility": -1, "drawOrder": null, "icon": null }, "geometry": { "type": "Point", "coordinates": [ 140.1584887, 40.7575379, 0.0 ] } },
{ "type": "Feature", "properties": { "Name": "鯵ヶ沢町長平町地区　R5.5.31", "description": "1頭目撃", "timestamp": null, "begin": null, "end": null, "altitudeMode": null, "tessellate": -1, "extrude": 0, "visibility": -1, "drawOrder": null, "icon": null }, "geometry": { "type": "Point", "coordinates": [ 140.27394240000001, 40.7279576, 0.0 ] } },
{ "type": "Feature", "properties": { "Name": "八戸市南郷島守地区　R5.6.5", "description": "1頭目撃", "timestamp": null, "begin": null, "end": null, "altitudeMode": null, "tessellate": -1, "extrude": 0, "visibility": -1, "drawOrder": null, "icon": null }, "geometry": { "type": "Point", "coordinates": [ 141.4923387, 40.4125098, 0.0 ] } },
{ "type": "Feature", "properties": { "Name": "八戸市南郷島守地区　R5.6.2", "description": "1頭目撃", "timestamp": null, "begin": null, "end": null, "altitudeMode": null, "tessellate": -1, "extrude": 0, "visibility": -1, "drawOrder": null, "icon": null }, "geometry": { "type": "Point", "coordinates": [ 141.46778230000001, 40.4134193, 0.0 ] } },
{ "type": "Feature", "properties": { "Name": "弘前市相馬地区　R5.6.4", "description": "1頭目撃", "timestamp": null, "begin": null, "end": null, "altitudeMode": null, "tessellate": -1, "extrude": 0, "visibility": -1, "drawOrder": null, "icon": null }, "geometry": { "type": "Point", "coordinates": [ 140.369509599999986, 40.5615185, 0.0 ] } },
{ "type": "Feature", "properties": { "Name": "三戸町梅内地区　R5.5.8", "description": "3頭目撃", "timestamp": null, "begin": null, "end": null, "altitudeMode": null, "tessellate": -1, "extrude": 0, "visibility": -1, "drawOrder": null, "icon": null }, "geometry": { "type": "Point", "coordinates": [ 141.300688799999989, 40.3722274, 0.0 ] } },
{ "type": "Feature", "properties": { "Name": "平川市切明地区　R5.6.2", "description": "1頭目撃（足跡のみ）", "timestamp": null, "begin": null, "end": null, "altitudeMode": null, "tessellate": -1, "extrude": 0, "visibility": -1, "drawOrder": null, "icon": null }, "geometry": { "type": "Point", "coordinates": [ 140.7426955, 40.5253306, 0.0 ] } },
{ "type": "Feature", "properties": { "Name": "八戸市鮫町地区　R5.6.6", "description": "1頭目撃", "timestamp": null, "begin": null, "end": null, "altitudeMode": null, "tessellate": -1, "extrude": 0, "visibility": -1, "drawOrder": null, "icon": null }, "geometry": { "type": "Point", "coordinates": [ 141.5835611, 40.5187961, 0.0 ] } },
{ "type": "Feature", "properties": { "Name": "弘前市百沢地区　R5.6.5", "description": "1頭目撃", "timestamp": null, "begin": null, "end": null, "altitudeMode": null, "tessellate": -1, "extrude": 0, "visibility": -1, "drawOrder": null, "icon": null }, "geometry": { "type": "Point", "coordinates": [ 140.3465177, 40.6112093, 0.0 ] } },
{ "type": "Feature", "properties": { "Name": "佐井村長後地区　R5.6.7", "description": "1頭目撃", "timestamp": null, "begin": null, "end": null, "altitudeMode": null, "tessellate": -1, "extrude": 0, "visibility": -1, "drawOrder": null, "icon": null }, "geometry": { "type": "Point", "coordinates": [ 140.826324699999986, 41.2779136, 0.0 ] } },
{ "type": "Feature", "properties": { "Name": "六戸町犬落瀬地区　R5.6.7", "description": "1頭目撃", "timestamp": null, "begin": null, "end": null, "altitudeMode": null, "tessellate": -1, "extrude": 0, "visibility": -1, "drawOrder": null, "icon": null }, "geometry": { "type": "Point", "coordinates": [ 141.300463900000011, 40.6473878, 0.0 ] } },
{ "type": "Feature", "properties": { "Name": "弘前市大沢地区　R5.6.7", "description": "食害被害", "timestamp": null, "begin": null, "end": null, "altitudeMode": null, "tessellate": -1, "extrude": 0, "visibility": -1, "drawOrder": null, "icon": null }, "geometry": { "type": "Point", "coordinates": [ 140.518458900000013, 40.5483363, 0.0 ] } },
{ "type": "Feature", "properties": { "Name": "弘前市十腰内地区　R5.6.8", "description": "1頭目撃", "timestamp": null, "begin": null, "end": null, "altitudeMode": null, "tessellate": -1, "extrude": 0, "visibility": -1, "drawOrder": null, "icon": null }, "geometry": { "type": "Point", "coordinates": [ 140.3204226, 40.7320596, 0.0 ] } },
{ "type": "Feature", "properties": { "Name": "七戸町　R5.5.25", "description": "1頭目撃", "timestamp": null, "begin": null, "end": null, "altitudeMode": null, "tessellate": -1, "extrude": 0, "visibility": -1, "drawOrder": null, "icon": null }, "geometry": { "type": "Point", "coordinates": [ 141.1431938, 40.7153907, 0.0 ] } },
{ "type": "Feature", "properties": { "Name": "七戸町蛇坂地区　R5.5.25", "description": "1頭目撃", "timestamp": null, "begin": null, "end": null, "altitudeMode": null, "tessellate": -1, "extrude": 0, "visibility": -1, "drawOrder": null, "icon": null }, "geometry": { "type": "Point", "coordinates": [ 141.151430299999987, 40.7124865, 0.0 ] } },
{ "type": "Feature", "properties": { "Name": "八戸市大久保地区　R5.5.30", "description": "1頭目撃", "timestamp": null, "begin": null, "end": null, "altitudeMode": null, "tessellate": -1, "extrude": 0, "visibility": -1, "drawOrder": null, "icon": null }, "geometry": { "type": "Point", "coordinates": [ 141.5509217, 40.4861888, 0.0 ] } },
{ "type": "Feature", "properties": { "Name": "八戸市大久保地区　R5.6.1", "description": "1頭目撃", "timestamp": null, "begin": null, "end": null, "altitudeMode": null, "tessellate": -1, "extrude": 0, "visibility": -1, "drawOrder": null, "icon": null }, "geometry": { "type": "Point", "coordinates": [ 141.5433607, 40.4922151, 0.0 ] } },
{ "type": "Feature", "properties": { "Name": "階上町道仏地区　R5.6.1", "description": "1頭目撃", "timestamp": null, "begin": null, "end": null, "altitudeMode": null, "tessellate": -1, "extrude": 0, "visibility": -1, "drawOrder": null, "icon": null }, "geometry": { "type": "Point", "coordinates": [ 141.652787499999988, 40.44918, 0.0 ] } },
{ "type": "Feature", "properties": { "Name": "十和田市奥瀬地区　R5.6.3", "description": "1頭目撃", "timestamp": null, "begin": null, "end": null, "altitudeMode": null, "tessellate": -1, "extrude": 0, "visibility": -1, "drawOrder": null, "icon": null }, "geometry": { "type": "Point", "coordinates": [ 140.9697153, 40.5889896, 0.0 ] } },
{ "type": "Feature", "properties": { "Name": "十和田市奥瀬地区　R5.6.7", "description": "2頭目撃", "timestamp": null, "begin": null, "end": null, "altitudeMode": null, "tessellate": -1, "extrude": 0, "visibility": -1, "drawOrder": null, "icon": null }, "geometry": { "type": "Point", "coordinates": [ 140.9615886, 40.5079763, 0.0 ] } },
{ "type": "Feature", "properties": { "Name": "十和田市伝法寺地区　R5.6.7", "description": "1頭目撃", "timestamp": null, "begin": null, "end": null, "altitudeMode": null, "tessellate": -1, "extrude": 0, "visibility": -1, "drawOrder": null, "icon": null }, "geometry": { "type": "Point", "coordinates": [ 141.25245240000001, 40.5799541, 0.0 ] } },
{ "type": "Feature", "properties": { "Name": "むつ市関根地区　Ｒ5.6.11", "description": "1頭目撃", "timestamp": null, "begin": null, "end": null, "altitudeMode": null, "tessellate": -1, "extrude": 0, "visibility": -1, "drawOrder": null, "icon": null }, "geometry": { "type": "Point", "coordinates": [ 141.1999085, 41.3769145, 0.0 ] } },
{ "type": "Feature", "properties": { "Name": "八戸市豊崎町地区　Ｒ5.6.12", "description": "1頭目撃", "timestamp": null, "begin": null, "end": null, "altitudeMode": null, "tessellate": -1, "extrude": 0, "visibility": -1, "drawOrder": null, "icon": null }, "geometry": { "type": "Point", "coordinates": [ 141.3683552, 40.5122187, 0.0 ] } },
{ "type": "Feature", "properties": { "Name": "今別町今別地区　Ｒ5.6.10", "description": "1頭目撃", "timestamp": null, "begin": null, "end": null, "altitudeMode": null, "tessellate": -1, "extrude": 0, "visibility": -1, "drawOrder": null, "icon": null }, "geometry": { "type": "Point", "coordinates": [ 140.4918912, 41.1768068, 0.0 ] } },
{ "type": "Feature", "properties": { "Name": "弘前市悪戸地区　Ｒ5.6.9", "description": "1頭目撃", "timestamp": null, "begin": null, "end": null, "altitudeMode": null, "tessellate": -1, "extrude": 0, "visibility": -1, "drawOrder": null, "icon": null }, "geometry": { "type": "Point", "coordinates": [ 140.4235529, 40.5712144, 0.0 ] } },
{ "type": "Feature", "properties": { "Name": "青森市四ツ石地区　Ｒ5.6.12", "description": "1頭目撃", "timestamp": null, "begin": null, "end": null, "altitudeMode": null, "tessellate": -1, "extrude": 0, "visibility": -1, "drawOrder": null, "icon": null }, "geometry": { "type": "Point", "coordinates": [ 140.7701376, 40.7759148, 0.0 ] } },
{ "type": "Feature", "properties": { "Name": "むつ市大畑町正津川平地区　Ｒ5.6.13", "description": "1頭目撃", "timestamp": null, "begin": null, "end": null, "altitudeMode": null, "tessellate": -1, "extrude": 0, "visibility": -1, "drawOrder": null, "icon": null }, "geometry": { "type": "Point", "coordinates": [ 141.1811395, 41.3930002, 0.0 ] } },
{ "type": "Feature", "properties": { "Name": "弘前市百沢地区　Ｒ5.6.12", "description": "1頭目撃", "timestamp": null, "begin": null, "end": null, "altitudeMode": null, "tessellate": -1, "extrude": 0, "visibility": -1, "drawOrder": null, "icon": null }, "geometry": { "type": "Point", "coordinates": [ 140.3325376, 40.6245027, 0.0 ] } },
{ "type": "Feature", "properties": { "Name": "佐井村長後地区　Ｒ5.6.12", "description": "1頭目撃", "timestamp": null, "begin": null, "end": null, "altitudeMode": null, "tessellate": -1, "extrude": 0, "visibility": -1, "drawOrder": null, "icon": null }, "geometry": { "type": "Point", "coordinates": [ 140.829009899999988, 41.367643, 0.0 ] } },
{ "type": "Feature", "properties": { "Name": "むつ市大畑町伊勢堂地区　Ｒ5.6.14", "description": "1頭目撃", "timestamp": null, "begin": null, "end": null, "altitudeMode": null, "tessellate": -1, "extrude": 0, "visibility": -1, "drawOrder": null, "icon": null }, "geometry": { "type": "Point", "coordinates": [ 141.1700741, 41.4041815, 0.0 ] } },
{ "type": "Feature", "properties": { "Name": "むつ市大畑町湊村地区　Ｒ5.6.15", "description": "1頭目撃", "timestamp": null, "begin": null, "end": null, "altitudeMode": null, "tessellate": -1, "extrude": 0, "visibility": -1, "drawOrder": null, "icon": null }, "geometry": { "type": "Point", "coordinates": [ 141.1660062, 41.4099111, 0.0 ] } },
{ "type": "Feature", "properties": { "Name": "むつ市大畑町中島地区　Ｒ5.6.15", "description": "1頭目撃", "timestamp": null, "begin": null, "end": null, "altitudeMode": null, "tessellate": -1, "extrude": 0, "visibility": -1, "drawOrder": null, "icon": null }, "geometry": { "type": "Point", "coordinates": [ 141.1678444, 41.4055888, 0.0 ] } },
{ "type": "Feature", "properties": { "Name": "階上町道仏地区　Ｒ5.5.16", "description": "1頭目撃", "timestamp": null, "begin": null, "end": null, "altitudeMode": null, "tessellate": -1, "extrude": 0, "visibility": -1, "drawOrder": null, "icon": null }, "geometry": { "type": "Point", "coordinates": [ 141.622067, 40.4535633, 0.0 ] } },
{ "type": "Feature", "properties": { "Name": "階上町道仏地区　Ｒ5.5.20", "description": "1頭目撃", "timestamp": null, "begin": null, "end": null, "altitudeMode": null, "tessellate": -1, "extrude": 0, "visibility": -1, "drawOrder": null, "icon": null }, "geometry": { "type": "Point", "coordinates": [ 141.6300803, 40.4501709, 0.0 ] } },
{ "type": "Feature", "properties": { "Name": "階上町道仏地区　Ｒ5.6.2", "description": "1頭目撃", "timestamp": null, "begin": null, "end": null, "altitudeMode": null, "tessellate": -1, "extrude": 0, "visibility": -1, "drawOrder": null, "icon": null }, "geometry": { "type": "Point", "coordinates": [ 141.66465, 40.4468886, 0.0 ] } },
{ "type": "Feature", "properties": { "Name": "階上町道仏地区　Ｒ5.6.12", "description": "1頭目撃", "timestamp": null, "begin": null, "end": null, "altitudeMode": null, "tessellate": -1, "extrude": 0, "visibility": -1, "drawOrder": null, "icon": null }, "geometry": { "type": "Point", "coordinates": [ 141.6600957, 40.4491193, 0.0 ] } },
{ "type": "Feature", "properties": { "Name": "階上町道仏地区　Ｒ5.6.12", "description": "1頭目撃", "timestamp": null, "begin": null, "end": null, "altitudeMode": null, "tessellate": -1, "extrude": 0, "visibility": -1, "drawOrder": null, "icon": null }, "geometry": { "type": "Point", "coordinates": [ 141.6456775, 40.4491439, 0.0 ] } },
{ "type": "Feature", "properties": { "Name": "三戸町斗内地区　Ｒ5.6.12", "description": "1頭目撃", "timestamp": null, "begin": null, "end": null, "altitudeMode": null, "tessellate": -1, "extrude": 0, "visibility": -1, "drawOrder": null, "icon": null }, "geometry": { "type": "Point", "coordinates": [ 141.1810453, 40.3441417, 0.0 ] } },
{ "type": "Feature", "properties": { "Name": "佐井村佐井地区　Ｒ5.6.15", "description": "1頭目撃", "timestamp": null, "begin": null, "end": null, "altitudeMode": null, "tessellate": -1, "extrude": 0, "visibility": -1, "drawOrder": null, "icon": null }, "geometry": { "type": "Point", "coordinates": [ 140.8879045, 41.4644825, 0.0 ] } },
{ "type": "Feature", "properties": { "Name": "むつ市川内町地区　Ｒ5.6.15", "description": "1頭目撃", "timestamp": null, "begin": null, "end": null, "altitudeMode": null, "tessellate": -1, "extrude": 0, "visibility": -1, "drawOrder": null, "icon": null }, "geometry": { "type": "Point", "coordinates": [ 140.9953176, 41.2137808, 0.0 ] } },
{ "type": "Feature", "properties": { "Name": "八戸市豊崎町地区　Ｒ5.6.16", "description": "1頭目撃", "timestamp": null, "begin": null, "end": null, "altitudeMode": null, "tessellate": -1, "extrude": 0, "visibility": -1, "drawOrder": null, "icon": null }, "geometry": { "type": "Point", "coordinates": [ 141.379726299999987, 40.5144724, 0.0 ] } },
{ "type": "Feature", "properties": { "Name": "鯵ヶ沢町赤石町地区　Ｒ5.6.4", "description": "1頭目撃", "timestamp": null, "begin": null, "end": null, "altitudeMode": null, "tessellate": -1, "extrude": 0, "visibility": -1, "drawOrder": null, "icon": null }, "geometry": { "type": "Point", "coordinates": [ 140.162693100000013, 40.7621692, 0.0 ] } },
{ "type": "Feature", "properties": { "Name": "鯵ヶ沢町姥袋町地区　Ｒ5.6.11", "description": "1頭目撃", "timestamp": null, "begin": null, "end": null, "altitudeMode": null, "tessellate": -1, "extrude": 0, "visibility": -1, "drawOrder": null, "icon": null }, "geometry": { "type": "Point", "coordinates": [ 140.1578528, 40.7581926, 0.0 ] } },
{ "type": "Feature", "properties": { "Name": "むつ市文京町地区　Ｒ5.6.16", "description": "1頭目撃", "timestamp": null, "begin": null, "end": null, "altitudeMode": null, "tessellate": -1, "extrude": 0, "visibility": -1, "drawOrder": null, "icon": null }, "geometry": { "type": "Point", "coordinates": [ 141.1689906, 41.2920991, 0.0 ] } },
{ "type": "Feature", "properties": { "Name": "平内町口広地区　Ｒ5.6.9", "description": "1頭目撃", "timestamp": null, "begin": null, "end": null, "altitudeMode": null, "tessellate": -1, "extrude": 0, "visibility": -1, "drawOrder": null, "icon": null }, "geometry": { "type": "Point", "coordinates": [ 141.0446521, 40.9142469, 0.0 ] } },
{ "type": "Feature", "properties": { "Name": "東北町大向旗屋地区　Ｒ5.6.12", "description": "1頭目撃", "timestamp": null, "begin": null, "end": null, "altitudeMode": null, "tessellate": -1, "extrude": 0, "visibility": -1, "drawOrder": null, "icon": null }, "geometry": { "type": "Point", "coordinates": [ 141.212164, 40.8051268, 0.0 ] } },
{ "type": "Feature", "properties": { "Name": "十和田市米田地区　Ｒ5.6.14", "description": "1頭目撃", "timestamp": null, "begin": null, "end": null, "altitudeMode": null, "tessellate": -1, "extrude": 0, "visibility": -1, "drawOrder": null, "icon": null }, "geometry": { "type": "Point", "coordinates": [ 141.2126533, 40.5610827, 0.0 ] } },
{ "type": "Feature", "properties": { "Name": "東北町新舘地区　Ｒ5.6.14", "description": "1頭目撃", "timestamp": null, "begin": null, "end": null, "altitudeMode": null, "tessellate": -1, "extrude": 0, "visibility": -1, "drawOrder": null, "icon": null }, "geometry": { "type": "Point", "coordinates": [ 141.1993397, 40.6935992, 0.0 ] } },
{ "type": "Feature", "properties": { "Name": "東北町新舘地区　Ｒ5.6.14", "description": "1頭目撃", "timestamp": null, "begin": null, "end": null, "altitudeMode": null, "tessellate": -1, "extrude": 0, "visibility": -1, "drawOrder": null, "icon": null }, "geometry": { "type": "Point", "coordinates": [ 141.1992539, 40.6930867, 0.0 ] } },
{ "type": "Feature", "properties": { "Name": "東北町向平地区　Ｒ5.6.15", "description": "1頭目撃", "timestamp": null, "begin": null, "end": null, "altitudeMode": null, "tessellate": -1, "extrude": 0, "visibility": -1, "drawOrder": null, "icon": null }, "geometry": { "type": "Point", "coordinates": [ 141.13408, 40.8090979, 0.0 ] } },
{ "type": "Feature", "properties": { "Name": "東北町篠内平地区　Ｒ5.6.16", "description": "1頭目撃", "timestamp": null, "begin": null, "end": null, "altitudeMode": null, "tessellate": -1, "extrude": 0, "visibility": -1, "drawOrder": null, "icon": null }, "geometry": { "type": "Point", "coordinates": [ 141.1917932, 40.7835511, 0.0 ] } },
{ "type": "Feature", "properties": { "Name": "東北町才市田地区　Ｒ5.6.15", "description": "1頭目撃", "timestamp": null, "begin": null, "end": null, "altitudeMode": null, "tessellate": -1, "extrude": 0, "visibility": -1, "drawOrder": null, "icon": null }, "geometry": { "type": "Point", "coordinates": [ 141.2252709, 40.7145411, 0.0 ] } },
{ "type": "Feature", "properties": { "Name": "東北町菩堤寺地区　Ｒ5.6.17", "description": "1頭目撃", "timestamp": null, "begin": null, "end": null, "altitudeMode": null, "tessellate": -1, "extrude": 0, "visibility": -1, "drawOrder": null, "icon": null }, "geometry": { "type": "Point", "coordinates": [ 141.2656158, 40.7203781, 0.0 ] } },
{ "type": "Feature", "properties": { "Name": "東北町沼崎本村地区　Ｒ5.6.19", "description": "1頭目撃", "timestamp": null, "begin": null, "end": null, "altitudeMode": null, "tessellate": -1, "extrude": 0, "visibility": -1, "drawOrder": null, "icon": null }, "geometry": { "type": "Point", "coordinates": [ 141.2856922, 40.7241214, 0.0 ] } },
{ "type": "Feature", "properties": { "Name": "東北町大浦地区　Ｒ5.6.19", "description": "1頭目撃", "timestamp": null, "begin": null, "end": null, "altitudeMode": null, "tessellate": -1, "extrude": 0, "visibility": -1, "drawOrder": null, "icon": null }, "geometry": { "type": "Point", "coordinates": [ 141.2833597, 40.7275707, 0.0 ] } },
{ "type": "Feature", "properties": { "Name": "青森市大別内地区　Ｒ5.6.16", "description": "1頭目撃", "timestamp": null, "begin": null, "end": null, "altitudeMode": null, "tessellate": -1, "extrude": 0, "visibility": -1, "drawOrder": null, "icon": null }, "geometry": { "type": "Point", "coordinates": [ 140.735126799999989, 40.754023, 0.0 ] } },
{ "type": "Feature", "properties": { "Name": "むつ市旭町地区　Ｒ5.6.20", "description": "1頭目撃", "timestamp": null, "begin": null, "end": null, "altitudeMode": null, "tessellate": -1, "extrude": 0, "visibility": -1, "drawOrder": null, "icon": null }, "geometry": { "type": "Point", "coordinates": [ 141.1755142, 41.2928164, 0.0 ] } },
{ "type": "Feature", "properties": { "Name": "青森市八甲田大岳　Ｒ5.6.20", "description": "1頭目撃", "timestamp": null, "begin": null, "end": null, "altitudeMode": null, "tessellate": -1, "extrude": 0, "visibility": -1, "drawOrder": null, "icon": null }, "geometry": { "type": "Point", "coordinates": [ 140.8781286, 40.6616225, 0.0 ] } },
{ "type": "Feature", "properties": { "Name": "十和田市大幌内地区　R5.4.29", "description": "1頭目撃", "timestamp": null, "begin": null, "end": null, "altitudeMode": null, "tessellate": -1, "extrude": 0, "visibility": -1, "drawOrder": null, "icon": null }, "geometry": { "type": "Point", "coordinates": [ 140.874956700000013, 40.5401208, 0.0 ] } },
{ "type": "Feature", "properties": { "Name": "十和田市赤沼地区　R5.5.11", "description": "1頭目撃", "timestamp": null, "begin": null, "end": null, "altitudeMode": null, "tessellate": -1, "extrude": 0, "visibility": -1, "drawOrder": null, "icon": null }, "geometry": { "type": "Point", "coordinates": [ 141.1899082, 40.5877552, 0.0 ] } },
{ "type": "Feature", "properties": { "Name": "十和田市洞内地区　R5.5.26", "description": "1頭目撃", "timestamp": null, "begin": null, "end": null, "altitudeMode": null, "tessellate": -1, "extrude": 0, "visibility": -1, "drawOrder": null, "icon": null }, "geometry": { "type": "Point", "coordinates": [ 141.187564900000012, 40.6630148, 0.0 ] } },
{ "type": "Feature", "properties": { "Name": "十和田市大不動地区　R5.5.31", "description": "1頭目撃", "timestamp": null, "begin": null, "end": null, "altitudeMode": null, "tessellate": -1, "extrude": 0, "visibility": -1, "drawOrder": null, "icon": null }, "geometry": { "type": "Point", "coordinates": [ 141.1646077, 40.5393511, 0.0 ] } },
{ "type": "Feature", "properties": { "Name": "十和田市深持地区　R5.6.2", "description": "1頭目撃", "timestamp": null, "begin": null, "end": null, "altitudeMode": null, "tessellate": -1, "extrude": 0, "visibility": -1, "drawOrder": null, "icon": null }, "geometry": { "type": "Point", "coordinates": [ 141.1361627, 40.615673, 0.0 ] } },
{ "type": "Feature", "properties": { "Name": "十和田市奥瀬地区　R5.6.10", "description": "1頭目撃", "timestamp": null, "begin": null, "end": null, "altitudeMode": null, "tessellate": -1, "extrude": 0, "visibility": -1, "drawOrder": null, "icon": null }, "geometry": { "type": "Point", "coordinates": [ 140.976852799999989, 40.5766191, 0.0 ] } },
{ "type": "Feature", "properties": { "Name": "十和田市奥瀬地区　R5.6.11", "description": "1頭目撃", "timestamp": null, "begin": null, "end": null, "altitudeMode": null, "tessellate": -1, "extrude": 0, "visibility": -1, "drawOrder": null, "icon": null }, "geometry": { "type": "Point", "coordinates": [ 140.9769789, 40.5765172, 0.0 ] } },
{ "type": "Feature", "properties": { "Name": "十和田市洞内地区　R5.6.18", "description": "1頭目撃", "timestamp": null, "begin": null, "end": null, "altitudeMode": null, "tessellate": -1, "extrude": 0, "visibility": -1, "drawOrder": null, "icon": null }, "geometry": { "type": "Point", "coordinates": [ 141.2076951, 40.6410385, 0.0 ] } },
{ "type": "Feature", "properties": { "Name": "十和田市赤沼地区　R5.6.19", "description": "1頭目撃", "timestamp": null, "begin": null, "end": null, "altitudeMode": null, "tessellate": -1, "extrude": 0, "visibility": -1, "drawOrder": null, "icon": null }, "geometry": { "type": "Point", "coordinates": [ 141.171291200000013, 40.6023721, 0.0 ] } },
{ "type": "Feature", "properties": { "Name": "十和田市米田地区　R5.6.20", "description": "1頭目撃", "timestamp": null, "begin": null, "end": null, "altitudeMode": null, "tessellate": -1, "extrude": 0, "visibility": -1, "drawOrder": null, "icon": null }, "geometry": { "type": "Point", "coordinates": [ 141.2330632, 40.5535679, 0.0 ] } },
{ "type": "Feature", "properties": { "Name": "十和田市切田平林　R5.6.21", "description": "1頭目撃", "timestamp": null, "begin": null, "end": null, "altitudeMode": null, "tessellate": -1, "extrude": 0, "visibility": -1, "drawOrder": null, "icon": null }, "geometry": { "type": "Point", "coordinates": [ 141.1974534, 40.579053, 0.0 ] } },
{ "type": "Feature", "properties": { "Name": "十和田市米田地区　R5.6.23", "description": "1頭目撃", "timestamp": null, "begin": null, "end": null, "altitudeMode": null, "tessellate": -1, "extrude": 0, "visibility": -1, "drawOrder": null, "icon": null }, "geometry": { "type": "Point", "coordinates": [ 141.280713100000014, 40.550528, 0.0 ] } },
{ "type": "Feature", "properties": { "Name": "弘前市百沢地区　R5.6.17", "description": "1頭目撃", "timestamp": null, "begin": null, "end": null, "altitudeMode": null, "tessellate": -1, "extrude": 0, "visibility": -1, "drawOrder": null, "icon": null }, "geometry": { "type": "Point", "coordinates": [ 140.29949640000001, 40.6145938, 0.0 ] } },
{ "type": "Feature", "properties": { "Name": "弘前市新岡地区　R5.6.18", "description": "1頭目撃", "timestamp": null, "begin": null, "end": null, "altitudeMode": null, "tessellate": -1, "extrude": 0, "visibility": -1, "drawOrder": null, "icon": null }, "geometry": { "type": "Point", "coordinates": [ 140.37981640000001, 40.6392144, 0.0 ] } },
{ "type": "Feature", "properties": { "Name": "むつ市大畑町湯坂下地区　R5.6.21", "description": "1頭目撃", "timestamp": null, "begin": null, "end": null, "altitudeMode": null, "tessellate": -1, "extrude": 0, "visibility": -1, "drawOrder": null, "icon": null }, "geometry": { "type": "Point", "coordinates": [ 141.153712500000012, 41.4019436, 0.0 ] } },
{ "type": "Feature", "properties": { "Name": "八戸市北インター工業団地地区　R5.6.21", "description": "1頭目撃", "timestamp": null, "begin": null, "end": null, "altitudeMode": null, "tessellate": -1, "extrude": 0, "visibility": -1, "drawOrder": null, "icon": null }, "geometry": { "type": "Point", "coordinates": [ 141.42823820000001, 40.5603255, 0.0 ] } },
{ "type": "Feature", "properties": { "Name": "むつ市正津川戦敷　R5.6.27", "description": "1頭目撃", "timestamp": null, "begin": null, "end": null, "altitudeMode": null, "tessellate": -1, "extrude": 0, "visibility": -1, "drawOrder": null, "icon": null }, "geometry": { "type": "Point", "coordinates": [ 141.173178299999989, 41.3893464, 0.0 ] } },
{ "type": "Feature", "properties": { "Name": "弘前市国吉地区　R5.6.23", "description": "1頭目撃", "timestamp": null, "begin": null, "end": null, "altitudeMode": null, "tessellate": -1, "extrude": 0, "visibility": -1, "drawOrder": null, "icon": null }, "geometry": { "type": "Point", "coordinates": [ 140.36434220000001, 40.5959219, 0.0 ] } },
{ "type": "Feature", "properties": { "Name": "弘前市百沢地区　R5.6.26", "description": "1頭目撃", "timestamp": null, "begin": null, "end": null, "altitudeMode": null, "tessellate": -1, "extrude": 0, "visibility": -1, "drawOrder": null, "icon": null }, "geometry": { "type": "Point", "coordinates": [ 140.2947445, 40.6168898, 0.0 ] } },
{ "type": "Feature", "properties": { "Name": "青森市合子沢地区　R5.6.21", "description": "1頭目撃", "timestamp": null, "begin": null, "end": null, "altitudeMode": null, "tessellate": -1, "extrude": 0, "visibility": -1, "drawOrder": null, "icon": null }, "geometry": { "type": "Point", "coordinates": [ 140.7566947, 40.75835, 0.0 ] } },
{ "type": "Feature", "properties": { "Name": "青森市孫内地区　R5.6.22", "description": "1頭目撃", "timestamp": null, "begin": null, "end": null, "altitudeMode": null, "tessellate": -1, "extrude": 0, "visibility": -1, "drawOrder": null, "icon": null }, "geometry": { "type": "Point", "coordinates": [ 140.6250784, 40.7624165, 0.0 ] } },
{ "type": "Feature", "properties": { "Name": "青森市大谷地区　R5.6.22", "description": "1頭目撃", "timestamp": null, "begin": null, "end": null, "altitudeMode": null, "tessellate": -1, "extrude": 0, "visibility": -1, "drawOrder": null, "icon": null }, "geometry": { "type": "Point", "coordinates": [ 140.7002085, 40.744555, 0.0 ] } },
{ "type": "Feature", "properties": { "Name": "むつ市大畑町長坂地区　R5.6.23", "description": "1頭目撃", "timestamp": null, "begin": null, "end": null, "altitudeMode": null, "tessellate": -1, "extrude": 0, "visibility": -1, "drawOrder": null, "icon": null }, "geometry": { "type": "Point", "coordinates": [ 141.1480752, 41.4244952, 0.0 ] } },
{ "type": "Feature", "properties": { "Name": "弘前市百沢地区　R5.6.23", "description": "1頭目撃", "timestamp": null, "begin": null, "end": null, "altitudeMode": null, "tessellate": -1, "extrude": 0, "visibility": -1, "drawOrder": null, "icon": null }, "geometry": { "type": "Point", "coordinates": [ 140.2951531, 40.6167374, 0.0 ] } },
{ "type": "Feature", "properties": { "Name": "佐井村長後地区　R5.6.27", "description": "1頭目撃", "timestamp": null, "begin": null, "end": null, "altitudeMode": null, "tessellate": -1, "extrude": 0, "visibility": -1, "drawOrder": null, "icon": null }, "geometry": { "type": "Point", "coordinates": [ 140.8076907, 41.3291695, 0.0 ] } },
{ "type": "Feature", "properties": { "Name": "青森市野沢地区　R5.6.23", "description": "1頭目撃", "timestamp": null, "begin": null, "end": null, "altitudeMode": null, "tessellate": -1, "extrude": 0, "visibility": -1, "drawOrder": null, "icon": null }, "geometry": { "type": "Point", "coordinates": [ 140.728378, 40.7422551, 0.0 ] } },
{ "type": "Feature", "properties": { "Name": "青森市鶴ヶ坂地区　R5.6.27", "description": "1頭目撃", "timestamp": null, "begin": null, "end": null, "altitudeMode": null, "tessellate": -1, "extrude": 0, "visibility": -1, "drawOrder": null, "icon": null }, "geometry": { "type": "Point", "coordinates": [ 140.630455500000011, 40.7701308, 0.0 ] } },
{ "type": "Feature", "properties": { "Name": "佐井村佐井地区　R5.6.28", "description": "1頭目撃", "timestamp": null, "begin": null, "end": null, "altitudeMode": null, "tessellate": -1, "extrude": 0, "visibility": -1, "drawOrder": null, "icon": null }, "geometry": { "type": "Point", "coordinates": [ 140.869606800000014, 41.4287384, 0.0 ] } },
{ "type": "Feature", "properties": { "Name": "佐井村佐井地区　R5.6.28", "description": "1頭目撃", "timestamp": null, "begin": null, "end": null, "altitudeMode": null, "tessellate": -1, "extrude": 0, "visibility": -1, "drawOrder": null, "icon": null }, "geometry": { "type": "Point", "coordinates": [ 140.8696766, 41.4287143, 0.0 ] } },
{ "type": "Feature", "properties": { "Name": "中泊町小泊地区　R5.6.28", "description": "2頭目撃", "timestamp": null, "begin": null, "end": null, "altitudeMode": null, "tessellate": -1, "extrude": 0, "visibility": -1, "drawOrder": null, "icon": null }, "geometry": { "type": "Point", "coordinates": [ 140.318776, 41.1440833, 0.0 ] } },
{ "type": "Feature", "properties": { "Name": "むつ市脇野沢地区　R5.6.29", "description": "1頭目撃", "timestamp": null, "begin": null, "end": null, "altitudeMode": null, "tessellate": -1, "extrude": 0, "visibility": -1, "drawOrder": null, "icon": null }, "geometry": { "type": "Point", "coordinates": [ 140.8798176, 41.1670169, 0.0 ] } },
{ "type": "Feature", "properties": { "Name": "三戸町貝守地区　R5.6.30", "description": "1頭目撃", "timestamp": null, "begin": null, "end": null, "altitudeMode": null, "tessellate": -1, "extrude": 0, "visibility": -1, "drawOrder": null, "icon": null }, "geometry": { "type": "Point", "coordinates": [ 141.082384499999989, 40.3797934, 0.0 ] } },
{ "type": "Feature", "properties": { "Name": "深浦町大間越地区　R5.7.2", "description": "1頭目撃", "timestamp": null, "begin": null, "end": null, "altitudeMode": null, "tessellate": -1, "extrude": 0, "visibility": -1, "drawOrder": null, "icon": null }, "geometry": { "type": "Point", "coordinates": [ 139.9410742, 40.4331011, 0.0 ] } },
{ "type": "Feature", "properties": { "Name": "東北町大浦地区　R5.6.22", "description": "1頭目撃", "timestamp": null, "begin": null, "end": null, "altitudeMode": null, "tessellate": -1, "extrude": 0, "visibility": -1, "drawOrder": null, "icon": null }, "geometry": { "type": "Point", "coordinates": [ 141.295574, 40.7011862, 0.0 ] } },
{ "type": "Feature", "properties": { "Name": "五戸町苗代沢地区　R5.6.27", "description": "1頭目撃", "timestamp": null, "begin": null, "end": null, "altitudeMode": null, "tessellate": -1, "extrude": 0, "visibility": -1, "drawOrder": null, "icon": null }, "geometry": { "type": "Point", "coordinates": [ 141.3277209, 40.5160787, 0.0 ] } },
{ "type": "Feature", "properties": { "Name": "つがる市車力地区　R5.6.29", "description": "1頭目撃", "timestamp": null, "begin": null, "end": null, "altitudeMode": null, "tessellate": -1, "extrude": 0, "visibility": -1, "drawOrder": null, "icon": null }, "geometry": { "type": "Point", "coordinates": [ 140.316378500000013, 40.9790563, 0.0 ] } },
{ "type": "Feature", "properties": { "Name": "十和田市奥瀬地区　R5.6.30", "description": "1頭目撃", "timestamp": null, "begin": null, "end": null, "altitudeMode": null, "tessellate": -1, "extrude": 0, "visibility": -1, "drawOrder": null, "icon": null }, "geometry": { "type": "Point", "coordinates": [ 141.1194165, 40.5835772, 0.0 ] } },
{ "type": "Feature", "properties": { "Name": "十和田市洞内地区　R5.7.1", "description": "1頭目撃", "timestamp": null, "begin": null, "end": null, "altitudeMode": null, "tessellate": -1, "extrude": 0, "visibility": -1, "drawOrder": null, "icon": null }, "geometry": { "type": "Point", "coordinates": [ 141.1608948, 40.6501079, 0.0 ] } },
{ "type": "Feature", "properties": { "Name": "むつ市大畑町上野地区　R5.7.4", "description": "1頭目撃", "timestamp": null, "begin": null, "end": null, "altitudeMode": null, "tessellate": -1, "extrude": 0, "visibility": -1, "drawOrder": null, "icon": null }, "geometry": { "type": "Point", "coordinates": [ 141.169142599999986, 41.3975629, 0.0 ] } },
{ "type": "Feature", "properties": { "Name": "佐井村佐井地区　R5.7.2", "description": "1頭目撃", "timestamp": null, "begin": null, "end": null, "altitudeMode": null, "tessellate": -1, "extrude": 0, "visibility": -1, "drawOrder": null, "icon": null }, "geometry": { "type": "Point", "coordinates": [ 140.884236, 41.4601493, 0.0 ] } },
{ "type": "Feature", "properties": { "Name": "鯵ヶ沢町赤石町地区　R5.6.17", "description": "1頭目撃", "timestamp": null, "begin": null, "end": null, "altitudeMode": null, "tessellate": -1, "extrude": 0, "visibility": -1, "drawOrder": null, "icon": null }, "geometry": { "type": "Point", "coordinates": [ 140.1769965, 40.7714111, 0.0 ] } },
{ "type": "Feature", "properties": { "Name": "鯵ヶ沢町舞戸町地区　R5.6.21", "description": "1頭目撃", "timestamp": null, "begin": null, "end": null, "altitudeMode": null, "tessellate": -1, "extrude": 0, "visibility": -1, "drawOrder": null, "icon": null }, "geometry": { "type": "Point", "coordinates": [ 140.2228424, 40.7675956, 0.0 ] } },
{ "type": "Feature", "properties": { "Name": "ポイント 鯵ヶ沢町舞戸町地区　R5.6.21", "description": "1頭目撃", "timestamp": null, "begin": null, "end": null, "altitudeMode": null, "tessellate": -1, "extrude": 0, "visibility": -1, "drawOrder": null, "icon": null }, "geometry": { "type": "Point", "coordinates": [ 140.2288107, 40.7711683, 0.0 ] } },
{ "type": "Feature", "properties": { "Name": "鯵ヶ沢町湯船町地区　R5.6.29", "description": "1頭目撃", "timestamp": null, "begin": null, "end": null, "altitudeMode": null, "tessellate": -1, "extrude": 0, "visibility": -1, "drawOrder": null, "icon": null }, "geometry": { "type": "Point", "coordinates": [ 140.2758259, 40.7399157, 0.0 ] } },
{ "type": "Feature", "properties": { "Name": "鯵ヶ沢町南金沢町地区　R5.7.1", "description": "1頭目撃", "timestamp": null, "begin": null, "end": null, "altitudeMode": null, "tessellate": -1, "extrude": 0, "visibility": -1, "drawOrder": null, "icon": null }, "geometry": { "type": "Point", "coordinates": [ 140.1771732, 40.7283479, 0.0 ] } },
{ "type": "Feature", "properties": { "Name": "鯵ヶ沢町建石町地区　R5.7.2", "description": "1頭目撃", "timestamp": null, "begin": null, "end": null, "altitudeMode": null, "tessellate": -1, "extrude": 0, "visibility": -1, "drawOrder": null, "icon": null }, "geometry": { "type": "Point", "coordinates": [ 140.2989184, 40.7520071, 0.0 ] } },
{ "type": "Feature", "properties": { "Name": "鯵ヶ沢町日照田町地区　R5.7.3", "description": "1頭目撃", "timestamp": null, "begin": null, "end": null, "altitudeMode": null, "tessellate": -1, "extrude": 0, "visibility": -1, "drawOrder": null, "icon": null }, "geometry": { "type": "Point", "coordinates": [ 140.1862605, 40.7454028, 0.0 ] } },
{ "type": "Feature", "properties": { "Name": "むつ市大湊地区　R5.7.6", "description": "1頭目撃", "timestamp": null, "begin": null, "end": null, "altitudeMode": null, "tessellate": -1, "extrude": 0, "visibility": -1, "drawOrder": null, "icon": null }, "geometry": { "type": "Point", "coordinates": [ 141.127801, 41.2498729, 0.0 ] } },
{ "type": "Feature", "properties": { "Name": "むつ市関根地区　R5.7.5", "description": "1頭目撃", "timestamp": null, "begin": null, "end": null, "altitudeMode": null, "tessellate": -1, "extrude": 0, "visibility": -1, "drawOrder": null, "icon": null }, "geometry": { "type": "Point", "coordinates": [ 141.206747, 41.3488438, 0.0 ] } },
{ "type": "Feature", "properties": { "Name": "大間町大間地区　R5.7.4", "description": "1頭目撃", "timestamp": null, "begin": null, "end": null, "altitudeMode": null, "tessellate": -1, "extrude": 0, "visibility": -1, "drawOrder": null, "icon": null }, "geometry": { "type": "Point", "coordinates": [ 140.9246315, 41.5137365, 0.0 ] } },
{ "type": "Feature", "properties": { "Name": "六戸町下吉田地区　R5.7.5", "description": "1頭目撃", "timestamp": null, "begin": null, "end": null, "altitudeMode": null, "tessellate": -1, "extrude": 0, "visibility": -1, "drawOrder": null, "icon": null }, "geometry": { "type": "Point", "coordinates": [ 141.3615844, 40.5813533, 0.0 ] } },
{ "type": "Feature", "properties": { "Name": "青森市浪岡王余魚沢地区　R5.6.29", "description": "1頭目撃", "timestamp": null, "begin": null, "end": null, "altitudeMode": null, "tessellate": -1, "extrude": 0, "visibility": -1, "drawOrder": null, "icon": null }, "geometry": { "type": "Point", "coordinates": [ 140.6792767, 40.7230897, 0.0 ] } },
{ "type": "Feature", "properties": { "Name": "青森市田茂木野地区　R5.7.4", "description": "1頭目撃", "timestamp": null, "begin": null, "end": null, "altitudeMode": null, "tessellate": -1, "extrude": 0, "visibility": -1, "drawOrder": null, "icon": null }, "geometry": { "type": "Point", "coordinates": [ 140.8129336, 40.7552011, 0.0 ] } },
{ "type": "Feature", "properties": { "Name": "青森市野沢地区　R5.7.5", "description": "1頭目撃", "timestamp": null, "begin": null, "end": null, "altitudeMode": null, "tessellate": -1, "extrude": 0, "visibility": -1, "drawOrder": null, "icon": null }, "geometry": { "type": "Point", "coordinates": [ 140.739331600000014, 40.7282667, 0.0 ] } },
{ "type": "Feature", "properties": { "Name": "弘前市中野地区　R5.6.28", "description": "食害被害", "timestamp": null, "begin": null, "end": null, "altitudeMode": null, "tessellate": -1, "extrude": 0, "visibility": -1, "drawOrder": null, "icon": null }, "geometry": { "type": "Point", "coordinates": [ 140.3240476, 40.5895942, 0.0 ] } },
{ "type": "Feature", "properties": { "Name": "弘前市百沢地区　R5.6.29", "description": "1頭目撃", "timestamp": null, "begin": null, "end": null, "altitudeMode": null, "tessellate": -1, "extrude": 0, "visibility": -1, "drawOrder": null, "icon": null }, "geometry": { "type": "Point", "coordinates": [ 140.358903199999986, 40.6187585, 0.0 ] } },
{ "type": "Feature", "properties": { "Name": "弘前市小沢地区　R5.6.29", "description": "1頭目撃", "timestamp": null, "begin": null, "end": null, "altitudeMode": null, "tessellate": -1, "extrude": 0, "visibility": -1, "drawOrder": null, "icon": null }, "geometry": { "type": "Point", "coordinates": [ 140.4467933, 40.5595123, 0.0 ] } },
{ "type": "Feature", "properties": { "Name": "弘前市松木平地区　R5.7.4", "description": "1頭目撃", "timestamp": null, "begin": null, "end": null, "altitudeMode": null, "tessellate": -1, "extrude": 0, "visibility": -1, "drawOrder": null, "icon": null }, "geometry": { "type": "Point", "coordinates": [ 140.4959858, 40.5480503, 0.0 ] } },
{ "type": "Feature", "properties": { "Name": "弘前市大森地区　R5.7.4", "description": "1頭目撃", "timestamp": null, "begin": null, "end": null, "altitudeMode": null, "tessellate": -1, "extrude": 0, "visibility": -1, "drawOrder": null, "icon": null }, "geometry": { "type": "Point", "coordinates": [ 140.345955300000014, 40.7038175, 0.0 ] } },
{ "type": "Feature", "properties": { "Name": "弘前市新法師地区　R5.7.5", "description": "食害被害", "timestamp": null, "begin": null, "end": null, "altitudeMode": null, "tessellate": -1, "extrude": 0, "visibility": -1, "drawOrder": null, "icon": null }, "geometry": { "type": "Point", "coordinates": [ 140.3648626, 40.6088894, 0.0 ] } },
{ "type": "Feature", "properties": { "Name": "弘前市坂市地区　R5.7.5", "description": "1頭目撃", "timestamp": null, "begin": null, "end": null, "altitudeMode": null, "tessellate": -1, "extrude": 0, "visibility": -1, "drawOrder": null, "icon": null }, "geometry": { "type": "Point", "coordinates": [ 140.3755385, 40.5727943, 0.0 ] } },
{ "type": "Feature", "properties": { "Name": "むつ市川内町休所地区　R5.7.7", "description": "1頭目撃", "timestamp": null, "begin": null, "end": null, "altitudeMode": null, "tessellate": -1, "extrude": 0, "visibility": -1, "drawOrder": null, "icon": null }, "geometry": { "type": "Point", "coordinates": [ 140.979694099999989, 41.2009966, 0.0 ] } },
{ "type": "Feature", "properties": { "Name": "むつ市川内町桧川地区　R5.7.7", "description": "1頭目撃", "timestamp": null, "begin": null, "end": null, "altitudeMode": null, "tessellate": -1, "extrude": 0, "visibility": -1, "drawOrder": null, "icon": null }, "geometry": { "type": "Point", "coordinates": [ 140.9593887, 41.1884092, 0.0 ] } },
{ "type": "Feature", "properties": { "Name": "三戸町梅内地区　R5.7.4", "description": "1頭目撃", "timestamp": null, "begin": null, "end": null, "altitudeMode": null, "tessellate": -1, "extrude": 0, "visibility": -1, "drawOrder": null, "icon": null }, "geometry": { "type": "Point", "coordinates": [ 141.2873961, 40.3607385, 0.0 ] } },
{ "type": "Feature", "properties": { "Name": "むつ市大畑町湯坂下地区　R5.7.10", "description": "1頭目撃", "timestamp": null, "begin": null, "end": null, "altitudeMode": null, "tessellate": -1, "extrude": 0, "visibility": -1, "drawOrder": null, "icon": null }, "geometry": { "type": "Point", "coordinates": [ 141.1528353, 41.4011678, 0.0 ] } },
{ "type": "Feature", "properties": { "Name": "むつ市川内町宿屋部地区　R5.7.10", "description": "1頭目撃", "timestamp": null, "begin": null, "end": null, "altitudeMode": null, "tessellate": -1, "extrude": 0, "visibility": -1, "drawOrder": null, "icon": null }, "geometry": { "type": "Point", "coordinates": [ 140.940779600000013, 41.1761655, 0.0 ] } },
{ "type": "Feature", "properties": { "Name": "八戸市南郷大森地区　R5.7.6", "description": "1頭目撃", "timestamp": null, "begin": null, "end": null, "altitudeMode": null, "tessellate": -1, "extrude": 0, "visibility": -1, "drawOrder": null, "icon": null }, "geometry": { "type": "Point", "coordinates": [ 141.4297025, 40.3801958, 0.0 ] } },
{ "type": "Feature", "properties": { "Name": "むつ市田名部地区　R5.7.10", "description": "2頭目撃", "timestamp": null, "begin": null, "end": null, "altitudeMode": null, "tessellate": -1, "extrude": 0, "visibility": -1, "drawOrder": null, "icon": null }, "geometry": { "type": "Point", "coordinates": [ 141.241406399999988, 41.2959432, 0.0 ] } },
{ "type": "Feature", "properties": { "Name": "むつ市田名部地区　R5.7.11", "description": "1頭目撃", "timestamp": null, "begin": null, "end": null, "altitudeMode": null, "tessellate": -1, "extrude": 0, "visibility": -1, "drawOrder": null, "icon": null }, "geometry": { "type": "Point", "coordinates": [ 141.2389513, 41.2991724, 0.0 ] } },
{ "type": "Feature", "properties": { "Name": "むつ市脇野沢鹿間平地区　R5.7.11", "description": "1頭目撃", "timestamp": null, "begin": null, "end": null, "altitudeMode": null, "tessellate": -1, "extrude": 0, "visibility": -1, "drawOrder": null, "icon": null }, "geometry": { "type": "Point", "coordinates": [ 140.8770055, 41.1681646, 0.0 ] } },
{ "type": "Feature", "properties": { "Name": "八戸市十日市地区　R5.7.7", "description": "1頭目撃", "timestamp": null, "begin": null, "end": null, "altitudeMode": null, "tessellate": -1, "extrude": 0, "visibility": -1, "drawOrder": null, "icon": null }, "geometry": { "type": "Point", "coordinates": [ 141.5149946, 40.4714938, 0.0 ] } },
{ "type": "Feature", "properties": { "Name": "むつ市大畑町南町地区　R5.7.13", "description": "1頭目撃", "timestamp": null, "begin": null, "end": null, "altitudeMode": null, "tessellate": -1, "extrude": 0, "visibility": -1, "drawOrder": null, "icon": null }, "geometry": { "type": "Point", "coordinates": [ 141.158433699999989, 41.4015718, 0.0 ] } },
{ "type": "Feature", "properties": { "Name": "六戸町上吉田地区　R5.7.12", "description": "1頭目撃", "timestamp": null, "begin": null, "end": null, "altitudeMode": null, "tessellate": -1, "extrude": 0, "visibility": -1, "drawOrder": null, "icon": null }, "geometry": { "type": "Point", "coordinates": [ 141.332785300000012, 40.5792842, 0.0 ] } },
{ "type": "Feature", "properties": { "Name": "弘前市湯口地区　R5.7.9", "description": "1頭目撃", "timestamp": null, "begin": null, "end": null, "altitudeMode": null, "tessellate": -1, "extrude": 0, "visibility": -1, "drawOrder": null, "icon": null }, "geometry": { "type": "Point", "coordinates": [ 140.4146608, 40.5852686, 0.0 ] } },
{ "type": "Feature", "properties": { "Name": "弘前市悪戸地区　R5.7.10", "description": "食害被害", "timestamp": null, "begin": null, "end": null, "altitudeMode": null, "tessellate": -1, "extrude": 0, "visibility": -1, "drawOrder": null, "icon": null }, "geometry": { "type": "Point", "coordinates": [ 140.4223155, 40.5650712, 0.0 ] } },
{ "type": "Feature", "properties": { "Name": "弘前市百沢地区　R5.7.10", "description": "食害被害", "timestamp": null, "begin": null, "end": null, "altitudeMode": null, "tessellate": -1, "extrude": 0, "visibility": -1, "drawOrder": null, "icon": null }, "geometry": { "type": "Point", "coordinates": [ 140.3649618, 40.6732012, 0.0 ] } },
{ "type": "Feature", "properties": { "Name": "弘前市十腰内地区　R5.7.11", "description": "1頭目撃", "timestamp": null, "begin": null, "end": null, "altitudeMode": null, "tessellate": -1, "extrude": 0, "visibility": -1, "drawOrder": null, "icon": null }, "geometry": { "type": "Point", "coordinates": [ 140.3287608, 40.756044, 0.0 ] } },
{ "type": "Feature", "properties": { "Name": "弘前市石川地区　R5.7.12", "description": "食害被害", "timestamp": null, "begin": null, "end": null, "altitudeMode": null, "tessellate": -1, "extrude": 0, "visibility": -1, "drawOrder": null, "icon": null }, "geometry": { "type": "Point", "coordinates": [ 140.53056380000001, 40.548564, 0.0 ] } },
{ "type": "Feature", "properties": { "Name": "むつ市城ケ沢地区　R5.7.14", "description": "1頭目撃", "timestamp": null, "begin": null, "end": null, "altitudeMode": null, "tessellate": -1, "extrude": 0, "visibility": -1, "drawOrder": null, "icon": null }, "geometry": { "type": "Point", "coordinates": [ 141.1206181, 41.2317745, 0.0 ] } },
{ "type": "Feature", "properties": { "Name": "むつ市脇野沢新井田地区　R5.7.17", "description": "1頭目撃", "timestamp": null, "begin": null, "end": null, "altitudeMode": null, "tessellate": -1, "extrude": 0, "visibility": -1, "drawOrder": null, "icon": null }, "geometry": { "type": "Point", "coordinates": [ 140.814450599999986, 41.1325752, 0.0 ] } },
{ "type": "Feature", "properties": { "Name": "むつ市関根地区　R5.7.18", "description": "1頭目撃", "timestamp": null, "begin": null, "end": null, "altitudeMode": null, "tessellate": -1, "extrude": 0, "visibility": -1, "drawOrder": null, "icon": null }, "geometry": { "type": "Point", "coordinates": [ 141.207220299999989, 41.3696232, 0.0 ] } },
{ "type": "Feature", "properties": { "Name": "むつ市大畑町高橋川地区　R5.7.18", "description": "食害被害", "timestamp": null, "begin": null, "end": null, "altitudeMode": null, "tessellate": -1, "extrude": 0, "visibility": -1, "drawOrder": null, "icon": null }, "geometry": { "type": "Point", "coordinates": [ 141.1321982, 41.3934594, 0.0 ] } },
{ "type": "Feature", "properties": { "Name": "むつ市大畑町松ノ木地区　R5.7.16", "description": "1頭目撃", "timestamp": null, "begin": null, "end": null, "altitudeMode": null, "tessellate": -1, "extrude": 0, "visibility": -1, "drawOrder": null, "icon": null }, "geometry": { "type": "Point", "coordinates": [ 141.1573103, 41.4016983, 0.0 ] } },
{ "type": "Feature", "properties": { "Name": "むつ市大畑町南町地区　R5.7.16", "description": "1頭目撃", "timestamp": null, "begin": null, "end": null, "altitudeMode": null, "tessellate": -1, "extrude": 0, "visibility": -1, "drawOrder": null, "icon": null }, "geometry": { "type": "Point", "coordinates": [ 141.1581354, 41.401305, 0.0 ] } },
{ "type": "Feature", "properties": { "Name": "三沢市浜通地区　R5.7.4", "description": "1頭目撃", "timestamp": null, "begin": null, "end": null, "altitudeMode": null, "tessellate": -1, "extrude": 0, "visibility": -1, "drawOrder": null, "icon": null }, "geometry": { "type": "Point", "coordinates": [ 141.4036168, 40.8055475, 0.0 ] } },
{ "type": "Feature", "properties": { "Name": "鯵ヶ沢町舞戸地区　R5.7.8", "description": "1頭目撃", "timestamp": null, "begin": null, "end": null, "altitudeMode": null, "tessellate": -1, "extrude": 0, "visibility": -1, "drawOrder": null, "icon": null }, "geometry": { "type": "Point", "coordinates": [ 140.2077946, 40.7781945, 0.0 ] } },
{ "type": "Feature", "properties": { "Name": "三沢市三沢地区　R5.7.8", "description": "1頭目撃", "timestamp": null, "begin": null, "end": null, "altitudeMode": null, "tessellate": -1, "extrude": 0, "visibility": -1, "drawOrder": null, "icon": null }, "geometry": { "type": "Point", "coordinates": [ 141.401655799999986, 40.7044418, 0.0 ] } },
{ "type": "Feature", "properties": { "Name": "八戸市是川地区　R5.7.7", "description": "1頭目撃", "timestamp": null, "begin": null, "end": null, "altitudeMode": null, "tessellate": -1, "extrude": 0, "visibility": -1, "drawOrder": null, "icon": null }, "geometry": { "type": "Point", "coordinates": [ 141.513247799999988, 40.4690659, 0.0 ] } },
{ "type": "Feature", "properties": { "Name": "弘前市薬師堂地区　R5.7.13", "description": "食害被害", "timestamp": null, "begin": null, "end": null, "altitudeMode": null, "tessellate": -1, "extrude": 0, "visibility": -1, "drawOrder": null, "icon": null }, "geometry": { "type": "Point", "coordinates": [ 140.5860954, 40.5573414, 0.0 ] } },
{ "type": "Feature", "properties": { "Name": "弘前市原ヶ平地区　R5.7.13", "description": "1頭目撃", "timestamp": null, "begin": null, "end": null, "altitudeMode": null, "tessellate": -1, "extrude": 0, "visibility": -1, "drawOrder": null, "icon": null }, "geometry": { "type": "Point", "coordinates": [ 140.4566544, 40.5603407, 0.0 ] } },
{ "type": "Feature", "properties": { "Name": "弘前市千年地区　R5.7.13", "description": "1頭目撃", "timestamp": null, "begin": null, "end": null, "altitudeMode": null, "tessellate": -1, "extrude": 0, "visibility": -1, "drawOrder": null, "icon": null }, "geometry": { "type": "Point", "coordinates": [ 140.4763974, 40.5595919, 0.0 ] } },
{ "type": "Feature", "properties": { "Name": "弘前市小沢地区　R5.7.14", "description": "食害被害", "timestamp": null, "begin": null, "end": null, "altitudeMode": null, "tessellate": -1, "extrude": 0, "visibility": -1, "drawOrder": null, "icon": null }, "geometry": { "type": "Point", "coordinates": [ 140.4499913, 40.5587676, 0.0 ] } },
{ "type": "Feature", "properties": { "Name": "佐井村佐井地区　R5.7.7", "description": "1頭目撃", "timestamp": null, "begin": null, "end": null, "altitudeMode": null, "tessellate": -1, "extrude": 0, "visibility": -1, "drawOrder": null, "icon": null }, "geometry": { "type": "Point", "coordinates": [ 140.8654037, 41.419154, 0.0 ] } },
{ "type": "Feature", "properties": { "Name": "佐井村佐井地区　R5.7.19", "description": "1頭目撃", "timestamp": null, "begin": null, "end": null, "altitudeMode": null, "tessellate": -1, "extrude": 0, "visibility": -1, "drawOrder": null, "icon": null }, "geometry": { "type": "Point", "coordinates": [ 140.8883116, 41.4644683, 0.0 ] } },
{ "type": "Feature", "properties": { "Name": "むつ市関根地区　R5.7.19", "description": "1頭目撃", "timestamp": null, "begin": null, "end": null, "altitudeMode": null, "tessellate": -1, "extrude": 0, "visibility": -1, "drawOrder": null, "icon": null }, "geometry": { "type": "Point", "coordinates": [ 141.209293, 41.3571914, 0.0 ] } },
{ "type": "Feature", "properties": { "Name": "むつ市中央1丁目地区　R5.7.20", "description": "3頭目撃", "timestamp": null, "begin": null, "end": null, "altitudeMode": null, "tessellate": -1, "extrude": 0, "visibility": -1, "drawOrder": null, "icon": null }, "geometry": { "type": "Point", "coordinates": [ 141.1849875, 41.2918164, 0.0 ] } },
{ "type": "Feature", "properties": { "Name": "八戸市南郷市野沢地区　R5.7.19", "description": "1頭目撃", "timestamp": null, "begin": null, "end": null, "altitudeMode": null, "tessellate": -1, "extrude": 0, "visibility": -1, "drawOrder": null, "icon": null }, "geometry": { "type": "Point", "coordinates": [ 141.4548786, 40.4064241, 0.0 ] } },
{ "type": "Feature", "properties": { "Name": "むつ市大畑町兎沢地区　R5.7.21", "description": "1頭目撃", "timestamp": null, "begin": null, "end": null, "altitudeMode": null, "tessellate": -1, "extrude": 0, "visibility": -1, "drawOrder": null, "icon": null }, "geometry": { "type": "Point", "coordinates": [ 141.157224899999989, 41.3933265, 0.0 ] } },
{ "type": "Feature", "properties": { "Name": "佐井村佐井地区　R5.7.20", "description": "1頭目撃", "timestamp": null, "begin": null, "end": null, "altitudeMode": null, "tessellate": -1, "extrude": 0, "visibility": -1, "drawOrder": null, "icon": null }, "geometry": { "type": "Point", "coordinates": [ 140.8887631, 41.4645734, 0.0 ] } },
{ "type": "Feature", "properties": { "Name": "佐井村長後地区　R5.7.20", "description": "1頭目撃", "timestamp": null, "begin": null, "end": null, "altitudeMode": null, "tessellate": -1, "extrude": 0, "visibility": -1, "drawOrder": null, "icon": null }, "geometry": { "type": "Point", "coordinates": [ 140.8332304, 41.365127, 0.0 ] } },
{ "type": "Feature", "properties": { "Name": "むつ市大畑町兎沢地区　R5.7.24", "description": "1頭目撃", "timestamp": null, "begin": null, "end": null, "altitudeMode": null, "tessellate": -1, "extrude": 0, "visibility": -1, "drawOrder": null, "icon": null }, "geometry": { "type": "Point", "coordinates": [ 141.157098600000012, 41.3947888, 0.0 ] } },
{ "type": "Feature", "properties": { "Name": "平川市切明地区　R5.7.6", "description": "食害被害", "timestamp": null, "begin": null, "end": null, "altitudeMode": null, "tessellate": -1, "extrude": 0, "visibility": -1, "drawOrder": null, "icon": null }, "geometry": { "type": "Point", "coordinates": [ 140.7424206, 40.5192502, 0.0 ] } },
{ "type": "Feature", "properties": { "Name": "平川市切明地区　R5.7.6", "description": "1頭目撃", "timestamp": null, "begin": null, "end": null, "altitudeMode": null, "tessellate": -1, "extrude": 0, "visibility": -1, "drawOrder": null, "icon": null }, "geometry": { "type": "Point", "coordinates": [ 140.6915477, 40.5499866, 0.0 ] } },
{ "type": "Feature", "properties": { "Name": "平川市碇ヶ関久吉地区　R5.7.6", "description": "1頭目撃", "timestamp": null, "begin": null, "end": null, "altitudeMode": null, "tessellate": -1, "extrude": 0, "visibility": -1, "drawOrder": null, "icon": null }, "geometry": { "type": "Point", "coordinates": [ 140.6565491, 40.4436475, 0.0 ] } },
{ "type": "Feature", "properties": { "Name": "平川市広船地区　R5.7.12", "description": "1頭目撃", "timestamp": null, "begin": null, "end": null, "altitudeMode": null, "tessellate": -1, "extrude": 0, "visibility": -1, "drawOrder": null, "icon": null }, "geometry": { "type": "Point", "coordinates": [ 140.6264904, 40.56342, 0.0 ] } },
{ "type": "Feature", "properties": { "Name": "むつ市大畑町兎沢地区　R5.7.24", "description": "1頭目撃", "timestamp": null, "begin": null, "end": null, "altitudeMode": null, "tessellate": -1, "extrude": 0, "visibility": -1, "drawOrder": null, "icon": null }, "geometry": { "type": "Point", "coordinates": [ 141.156827, 41.3960454, 0.0 ] } },
{ "type": "Feature", "properties": { "Name": "むつ市大畑町松ノ木地区　R5.7.25", "description": "1頭目撃", "timestamp": null, "begin": null, "end": null, "altitudeMode": null, "tessellate": -1, "extrude": 0, "visibility": -1, "drawOrder": null, "icon": null }, "geometry": { "type": "Point", "coordinates": [ 141.1554952, 41.3971722, 0.0 ] } },
{ "type": "Feature", "properties": { "Name": "むつ市大畑町兎沢地区　R5.7.25", "description": "1頭目撃", "timestamp": null, "begin": null, "end": null, "altitudeMode": null, "tessellate": -1, "extrude": 0, "visibility": -1, "drawOrder": null, "icon": null }, "geometry": { "type": "Point", "coordinates": [ 141.1552661, 41.3948557, 0.0 ] } },
{ "type": "Feature", "properties": { "Name": "弘前市桜庭地区　R5.7.14", "description": "1頭目撃", "timestamp": null, "begin": null, "end": null, "altitudeMode": null, "tessellate": -1, "extrude": 0, "visibility": -1, "drawOrder": null, "icon": null }, "geometry": { "type": "Point", "coordinates": [ 140.3306617, 40.5941603, 0.0 ] } },
{ "type": "Feature", "properties": { "Name": "弘前市小栗山地区　R5.7.14", "description": "食害被害", "timestamp": null, "begin": null, "end": null, "altitudeMode": null, "tessellate": -1, "extrude": 0, "visibility": -1, "drawOrder": null, "icon": null }, "geometry": { "type": "Point", "coordinates": [ 140.494832, 40.5471235, 0.0 ] } },
{ "type": "Feature", "properties": { "Name": "弘前市高杉地区　R5.7.17", "description": "1頭目撃", "timestamp": null, "begin": null, "end": null, "altitudeMode": null, "tessellate": -1, "extrude": 0, "visibility": -1, "drawOrder": null, "icon": null }, "geometry": { "type": "Point", "coordinates": [ 140.3866995, 40.6765605, 0.0 ] } },
{ "type": "Feature", "properties": { "Name": "弘前市小沢地区　R5.7.17", "description": "1頭目撃", "timestamp": null, "begin": null, "end": null, "altitudeMode": null, "tessellate": -1, "extrude": 0, "visibility": -1, "drawOrder": null, "icon": null }, "geometry": { "type": "Point", "coordinates": [ 140.4364749, 40.5716212, 0.0 ] } },
{ "type": "Feature", "properties": { "Name": "弘前市沢田地区　R5.7.17", "description": "1頭目撃", "timestamp": null, "begin": null, "end": null, "altitudeMode": null, "tessellate": -1, "extrude": 0, "visibility": -1, "drawOrder": null, "icon": null }, "geometry": { "type": "Point", "coordinates": [ 140.324386, 40.5689695, 0.0 ] } },
{ "type": "Feature", "properties": { "Name": "弘前市小沢地区　R5.7.18", "description": "食害被害", "timestamp": null, "begin": null, "end": null, "altitudeMode": null, "tessellate": -1, "extrude": 0, "visibility": -1, "drawOrder": null, "icon": null }, "geometry": { "type": "Point", "coordinates": [ 140.4541845, 40.5648051, 0.0 ] } },
{ "type": "Feature", "properties": { "Name": "弘前市十面沢地区　R5.7.18", "description": "1頭目撃", "timestamp": null, "begin": null, "end": null, "altitudeMode": null, "tessellate": -1, "extrude": 0, "visibility": -1, "drawOrder": null, "icon": null }, "geometry": { "type": "Point", "coordinates": [ 140.3543994, 40.7399685, 0.0 ] } },
{ "type": "Feature", "properties": { "Name": "弘前市新法師地区　R5.7.18", "description": "食害被害", "timestamp": null, "begin": null, "end": null, "altitudeMode": null, "tessellate": -1, "extrude": 0, "visibility": -1, "drawOrder": null, "icon": null }, "geometry": { "type": "Point", "coordinates": [ 140.3706721, 40.6036968, 0.0 ] } },
{ "type": "Feature", "properties": { "Name": "弘前市小栗山地区　R5.7.18", "description": "1頭目撃", "timestamp": null, "begin": null, "end": null, "altitudeMode": null, "tessellate": -1, "extrude": 0, "visibility": -1, "drawOrder": null, "icon": null }, "geometry": { "type": "Point", "coordinates": [ 140.490105, 40.5555597, 0.0 ] } },
{ "type": "Feature", "properties": { "Name": "弘前市大森地区　R5.7.19", "description": "食害被害", "timestamp": null, "begin": null, "end": null, "altitudeMode": null, "tessellate": -1, "extrude": 0, "visibility": -1, "drawOrder": null, "icon": null }, "geometry": { "type": "Point", "coordinates": [ 140.3672197, 40.7078836, 0.0 ] } },
{ "type": "Feature", "properties": { "Name": "弘前市十腰内地区　R5.7.20", "description": "食害被害", "timestamp": null, "begin": null, "end": null, "altitudeMode": null, "tessellate": -1, "extrude": 0, "visibility": -1, "drawOrder": null, "icon": null }, "geometry": { "type": "Point", "coordinates": [ 140.313668400000012, 40.7157767, 0.0 ] } },
{ "type": "Feature", "properties": { "Name": "弘前市折笠地区　R5.7.21", "description": "1頭目撃", "timestamp": null, "begin": null, "end": null, "altitudeMode": null, "tessellate": -1, "extrude": 0, "visibility": -1, "drawOrder": null, "icon": null }, "geometry": { "type": "Point", "coordinates": [ 140.3816136, 40.6489978, 0.0 ] } },
{ "type": "Feature", "properties": { "Name": "弘前市石川地区　R5.7.21", "description": "食害被害", "timestamp": null, "begin": null, "end": null, "altitudeMode": null, "tessellate": -1, "extrude": 0, "visibility": -1, "drawOrder": null, "icon": null }, "geometry": { "type": "Point", "coordinates": [ 140.5347683, 40.5426498, 0.0 ] } },
{ "type": "Feature", "properties": { "Name": "弘前市葛原地区　R5.7.21", "description": "1頭目撃", "timestamp": null, "begin": null, "end": null, "altitudeMode": null, "tessellate": -1, "extrude": 0, "visibility": -1, "drawOrder": null, "icon": null }, "geometry": { "type": "Point", "coordinates": [ 140.3745274, 40.6246458, 0.0 ] } },
{ "type": "Feature", "properties": { "Name": "弘前市常盤野地区　R5.7.21", "description": "1頭目撃", "timestamp": null, "begin": null, "end": null, "altitudeMode": null, "tessellate": -1, "extrude": 0, "visibility": -1, "drawOrder": null, "icon": null }, "geometry": { "type": "Point", "coordinates": [ 140.2651717, 40.6435614, 0.0 ] } },
{ "type": "Feature", "properties": { "Name": "弘前市小栗山地区　R5.7.23", "description": "食害被害", "timestamp": null, "begin": null, "end": null, "altitudeMode": null, "tessellate": -1, "extrude": 0, "visibility": -1, "drawOrder": null, "icon": null }, "geometry": { "type": "Point", "coordinates": [ 140.490366, 40.5516732, 0.0 ] } },
{ "type": "Feature", "properties": { "Name": "弘前市百沢地区　R5.7.24", "description": "食害被害", "timestamp": null, "begin": null, "end": null, "altitudeMode": null, "tessellate": -1, "extrude": 0, "visibility": -1, "drawOrder": null, "icon": null }, "geometry": { "type": "Point", "coordinates": [ 140.368129900000014, 40.6466126, 0.0 ] } },
{ "type": "Feature", "properties": { "Name": "むつ市大湊町地区　R5.7.26", "description": "1頭目撃", "timestamp": null, "begin": null, "end": null, "altitudeMode": null, "tessellate": -1, "extrude": 0, "visibility": -1, "drawOrder": null, "icon": null }, "geometry": { "type": "Point", "coordinates": [ 141.138136, 41.2516161, 0.0 ] } },
{ "type": "Feature", "properties": { "Name": "むつ市大畑町伊勢堂地区　R5.7.26", "description": "1頭目撃", "timestamp": null, "begin": null, "end": null, "altitudeMode": null, "tessellate": -1, "extrude": 0, "visibility": -1, "drawOrder": null, "icon": null }, "geometry": { "type": "Point", "coordinates": [ 141.168575, 41.4033906, 0.0 ] } },
{ "type": "Feature", "properties": { "Name": "むつ市大畑町南町地区　R5.7.27", "description": "1頭目撃", "timestamp": null, "begin": null, "end": null, "altitudeMode": null, "tessellate": -1, "extrude": 0, "visibility": -1, "drawOrder": null, "icon": null }, "geometry": { "type": "Point", "coordinates": [ 141.1587682, 41.4017606, 0.0 ] } },
{ "type": "Feature", "properties": { "Name": "弘前市小沢地区　R5.7.28", "description": "70代男性がクマに襲われ手首等を負傷", "timestamp": null, "begin": null, "end": null, "altitudeMode": null, "tessellate": -1, "extrude": 0, "visibility": -1, "drawOrder": null, "icon": null }, "geometry": { "type": "Point", "coordinates": [ 140.447352599999988, 40.5634892, 0.0 ] } },
{ "type": "Feature", "properties": { "Name": "むつ市脇野沢奇浪地区　R5.7.27", "description": "1頭目撃", "timestamp": null, "begin": null, "end": null, "altitudeMode": null, "tessellate": -1, "extrude": 0, "visibility": -1, "drawOrder": null, "icon": null }, "geometry": { "type": "Point", "coordinates": [ 140.80835, 41.1300162, 0.0 ] } },
{ "type": "Feature", "properties": { "Name": "むつ市脇野沢小サ沢地区　R5.7.28", "description": "1頭目撃", "timestamp": null, "begin": null, "end": null, "altitudeMode": null, "tessellate": -1, "extrude": 0, "visibility": -1, "drawOrder": null, "icon": null }, "geometry": { "type": "Point", "coordinates": [ 140.8709193, 41.1674679, 0.0 ] } },
{ "type": "Feature", "properties": { "Name": "佐井村佐井地区　R5.7.31", "description": "1頭目撃", "timestamp": null, "begin": null, "end": null, "altitudeMode": null, "tessellate": -1, "extrude": 0, "visibility": -1, "drawOrder": null, "icon": null }, "geometry": { "type": "Point", "coordinates": [ 140.8890429, 41.4646442, 0.0 ] } },
{ "type": "Feature", "properties": { "Name": "佐井村長後地区　R5.8.1", "description": "1頭目撃", "timestamp": null, "begin": null, "end": null, "altitudeMode": null, "tessellate": -1, "extrude": 0, "visibility": -1, "drawOrder": null, "icon": null }, "geometry": { "type": "Point", "coordinates": [ 140.823212899999987, 41.3251248, 0.0 ] } },
{ "type": "Feature", "properties": { "Name": "むつ市大畑町松ノ木地区　R5.8.1", "description": "1頭目撃", "timestamp": null, "begin": null, "end": null, "altitudeMode": null, "tessellate": -1, "extrude": 0, "visibility": -1, "drawOrder": null, "icon": null }, "geometry": { "type": "Point", "coordinates": [ 141.153330899999986, 41.3971577, 0.0 ] } },
{ "type": "Feature", "properties": { "Name": "むつ市大畑町正津川戦敷地区　R5.8.2", "description": "1頭目撃", "timestamp": null, "begin": null, "end": null, "altitudeMode": null, "tessellate": -1, "extrude": 0, "visibility": -1, "drawOrder": null, "icon": null }, "geometry": { "type": "Point", "coordinates": [ 141.1720937, 41.3896551, 0.0 ] } },
{ "type": "Feature", "properties": { "Name": "平川市碇ヶ関岩井地区　R5.7.31", "description": "1頭目撃", "timestamp": null, "begin": null, "end": null, "altitudeMode": null, "tessellate": -1, "extrude": 0, "visibility": -1, "drawOrder": null, "icon": null }, "geometry": { "type": "Point", "coordinates": [ 140.6349339, 40.4630561, 0.0 ] } },
{ "type": "Feature", "properties": { "Name": "平川市切明地区　R5.7.31", "description": "食害被害", "timestamp": null, "begin": null, "end": null, "altitudeMode": null, "tessellate": -1, "extrude": 0, "visibility": -1, "drawOrder": null, "icon": null }, "geometry": { "type": "Point", "coordinates": [ 140.756776, 40.5234431, 0.0 ] } },
{ "type": "Feature", "properties": { "Name": "平川市尾崎地区　R5.7.28", "description": "食害被害", "timestamp": null, "begin": null, "end": null, "altitudeMode": null, "tessellate": -1, "extrude": 0, "visibility": -1, "drawOrder": null, "icon": null }, "geometry": { "type": "Point", "coordinates": [ 140.6234522, 40.5855951, 0.0 ] } },
{ "type": "Feature", "properties": { "Name": "新郷村戸来地区　R5.8.4", "description": "1頭目撃", "timestamp": null, "begin": null, "end": null, "altitudeMode": null, "tessellate": -1, "extrude": 0, "visibility": -1, "drawOrder": null, "icon": null }, "geometry": { "type": "Point", "coordinates": [ 141.1749919, 40.4668364, 0.0 ] } },
{ "type": "Feature", "properties": { "Name": "青森市大谷地区　R5.8.4", "description": "1頭目撃", "timestamp": null, "begin": null, "end": null, "altitudeMode": null, "tessellate": -1, "extrude": 0, "visibility": -1, "drawOrder": null, "icon": null }, "geometry": { "type": "Point", "coordinates": [ 140.703004600000014, 40.7455829, 0.0 ] } },
{ "type": "Feature", "properties": { "Name": "弘前市悪戸地区　R5.7.24", "description": "食害被害", "timestamp": null, "begin": null, "end": null, "altitudeMode": null, "tessellate": -1, "extrude": 0, "visibility": -1, "drawOrder": null, "icon": null }, "geometry": { "type": "Point", "coordinates": [ 140.42188, 40.5688516, 0.0 ] } },
{ "type": "Feature", "properties": { "Name": "弘前市小沢地区　R5.7.24", "description": "食害被害", "timestamp": null, "begin": null, "end": null, "altitudeMode": null, "tessellate": -1, "extrude": 0, "visibility": -1, "drawOrder": null, "icon": null }, "geometry": { "type": "Point", "coordinates": [ 140.4403541, 40.5607266, 0.0 ] } },
{ "type": "Feature", "properties": { "Name": "弘前市黒土地区　R5.7.26", "description": "食害被害", "timestamp": null, "begin": null, "end": null, "altitudeMode": null, "tessellate": -1, "extrude": 0, "visibility": -1, "drawOrder": null, "icon": null }, "geometry": { "type": "Point", "coordinates": [ 140.3410659, 40.5984915, 0.0 ] } },
{ "type": "Feature", "properties": { "Name": "弘前市五代地区　R5.7.26", "description": "1頭目撃", "timestamp": null, "begin": null, "end": null, "altitudeMode": null, "tessellate": -1, "extrude": 0, "visibility": -1, "drawOrder": null, "icon": null }, "geometry": { "type": "Point", "coordinates": [ 140.4029894, 40.6097871, 0.0 ] } },
{ "type": "Feature", "properties": { "Name": "弘前市小沢地区　R5.7.26", "description": "食害被害", "timestamp": null, "begin": null, "end": null, "altitudeMode": null, "tessellate": -1, "extrude": 0, "visibility": -1, "drawOrder": null, "icon": null }, "geometry": { "type": "Point", "coordinates": [ 140.4494274, 40.559902, 0.0 ] } },
{ "type": "Feature", "properties": { "Name": "弘前市小栗山地区　R5.7.27", "description": "食害被害", "timestamp": null, "begin": null, "end": null, "altitudeMode": null, "tessellate": -1, "extrude": 0, "visibility": -1, "drawOrder": null, "icon": null }, "geometry": { "type": "Point", "coordinates": [ 140.478621, 40.5585945, 0.0 ] } },
{ "type": "Feature", "properties": { "Name": "弘前市常盤野地区　R5.7.29", "description": "1頭目撃", "timestamp": null, "begin": null, "end": null, "altitudeMode": null, "tessellate": -1, "extrude": 0, "visibility": -1, "drawOrder": null, "icon": null }, "geometry": { "type": "Point", "coordinates": [ 140.2505251, 40.6292463, 0.0 ] } },
{ "type": "Feature", "properties": { "Name": "弘前市十面沢地区　R5.7.30", "description": "1頭目撃", "timestamp": null, "begin": null, "end": null, "altitudeMode": null, "tessellate": -1, "extrude": 0, "visibility": -1, "drawOrder": null, "icon": null }, "geometry": { "type": "Point", "coordinates": [ 140.3308021, 40.710927, 0.0 ] } },
{ "type": "Feature", "properties": { "Name": "弘前市百沢地区　R5.7.31", "description": "食害被害", "timestamp": null, "begin": null, "end": null, "altitudeMode": null, "tessellate": -1, "extrude": 0, "visibility": -1, "drawOrder": null, "icon": null }, "geometry": { "type": "Point", "coordinates": [ 140.3677681, 40.6466739, 0.0 ] } },
{ "type": "Feature", "properties": { "Name": "弘前市小沢地区　R5.8.1", "description": "食害被害", "timestamp": null, "begin": null, "end": null, "altitudeMode": null, "tessellate": -1, "extrude": 0, "visibility": -1, "drawOrder": null, "icon": null }, "geometry": { "type": "Point", "coordinates": [ 140.4501364, 40.5588239, 0.0 ] } },
{ "type": "Feature", "properties": { "Name": "弘前市小沢地区　R5.8.1", "description": "食害被害", "timestamp": null, "begin": null, "end": null, "altitudeMode": null, "tessellate": -1, "extrude": 0, "visibility": -1, "drawOrder": null, "icon": null }, "geometry": { "type": "Point", "coordinates": [ 140.4495641, 40.5550163, 0.0 ] } },
{ "type": "Feature", "properties": { "Name": "弘前市百沢地区　R5.8.1", "description": "1頭目撃（足跡）", "timestamp": null, "begin": null, "end": null, "altitudeMode": null, "tessellate": -1, "extrude": 0, "visibility": -1, "drawOrder": null, "icon": null }, "geometry": { "type": "Point", "coordinates": [ 140.3574738, 40.643247, 0.0 ] } },
{ "type": "Feature", "properties": { "Name": "佐井村長後地区　R5.8.1", "description": "1頭目撃", "timestamp": null, "begin": null, "end": null, "altitudeMode": null, "tessellate": -1, "extrude": 0, "visibility": -1, "drawOrder": null, "icon": null }, "geometry": { "type": "Point", "coordinates": [ 140.8235856, 41.3250661, 0.0 ] } },
{ "type": "Feature", "properties": { "Name": "むつ市大畑町高橋川地区　R5.8.7", "description": "食害被害", "timestamp": null, "begin": null, "end": null, "altitudeMode": null, "tessellate": -1, "extrude": 0, "visibility": -1, "drawOrder": null, "icon": null }, "geometry": { "type": "Point", "coordinates": [ 141.1323232, 41.3934294, 0.0 ] } },
{ "type": "Feature", "properties": { "Name": "むつ市脇野沢鹿間平地区　R5.8.7", "description": "1頭目撃", "timestamp": null, "begin": null, "end": null, "altitudeMode": null, "tessellate": -1, "extrude": 0, "visibility": -1, "drawOrder": null, "icon": null }, "geometry": { "type": "Point", "coordinates": [ 140.8768957, 41.1670717, 0.0 ] } },
{ "type": "Feature", "properties": { "Name": "三戸町貝守地区　R5.7.15", "description": "1頭目撃", "timestamp": null, "begin": null, "end": null, "altitudeMode": null, "tessellate": -1, "extrude": 0, "visibility": -1, "drawOrder": null, "icon": null }, "geometry": { "type": "Point", "coordinates": [ 141.08214430000001, 40.379632, 0.0 ] } },
{ "type": "Feature", "properties": { "Name": "三戸町貝守地区　R5.7.16", "description": "1頭目撃", "timestamp": null, "begin": null, "end": null, "altitudeMode": null, "tessellate": -1, "extrude": 0, "visibility": -1, "drawOrder": null, "icon": null }, "geometry": { "type": "Point", "coordinates": [ 141.0826056, 40.3797056, 0.0 ] } },
{ "type": "Feature", "properties": { "Name": "三戸町貝守地区　R5.7.17", "description": "1頭目撃", "timestamp": null, "begin": null, "end": null, "altitudeMode": null, "tessellate": -1, "extrude": 0, "visibility": -1, "drawOrder": null, "icon": null }, "geometry": { "type": "Point", "coordinates": [ 141.082927500000011, 40.3798118, 0.0 ] } },
{ "type": "Feature", "properties": { "Name": "三戸町斗内地区　R5.7.19", "description": "1頭目撃", "timestamp": null, "begin": null, "end": null, "altitudeMode": null, "tessellate": -1, "extrude": 0, "visibility": -1, "drawOrder": null, "icon": null }, "geometry": { "type": "Point", "coordinates": [ 141.224166, 40.3544646, 0.0 ] } },
{ "type": "Feature", "properties": { "Name": "鰺ヶ沢町舞戸町地区　R5.7.8", "description": "1頭目撃", "timestamp": null, "begin": null, "end": null, "altitudeMode": null, "tessellate": -1, "extrude": 0, "visibility": -1, "drawOrder": null, "icon": null }, "geometry": { "type": "Point", "coordinates": [ 140.2090681, 40.7739106, 0.0 ] } },
{ "type": "Feature", "properties": { "Name": "鰺ヶ沢町北浮田町地区　R5.7.8", "description": "1頭目撃", "timestamp": null, "begin": null, "end": null, "altitudeMode": null, "tessellate": -1, "extrude": 0, "visibility": -1, "drawOrder": null, "icon": null }, "geometry": { "type": "Point", "coordinates": [ 140.287580100000014, 40.7814384, 0.0 ] } },
{ "type": "Feature", "properties": { "Name": "鰺ヶ沢町中村町地区　R5.7.28", "description": "1頭目撃", "timestamp": null, "begin": null, "end": null, "altitudeMode": null, "tessellate": -1, "extrude": 0, "visibility": -1, "drawOrder": null, "icon": null }, "geometry": { "type": "Point", "coordinates": [ 140.2271001, 40.7609656, 0.0 ] } },
{ "type": "Feature", "properties": { "Name": "鯵ヶ沢町赤石町地区　R5.8.1", "description": "1頭目撃", "timestamp": null, "begin": null, "end": null, "altitudeMode": null, "tessellate": -1, "extrude": 0, "visibility": -1, "drawOrder": null, "icon": null }, "geometry": { "type": "Point", "coordinates": [ 140.1851933, 40.7665688, 0.0 ] } },
{ "type": "Feature", "properties": { "Name": "むつ市川内町高野川地区　R5.8.8", "description": "1頭目撃", "timestamp": null, "begin": null, "end": null, "altitudeMode": null, "tessellate": -1, "extrude": 0, "visibility": -1, "drawOrder": null, "icon": null }, "geometry": { "type": "Point", "coordinates": [ 141.0376904, 41.2139113, 0.0 ] } },
{ "type": "Feature", "properties": { "Name": "むつ市大畑町松ノ木地区　R5.8.9", "description": "1頭目撃", "timestamp": null, "begin": null, "end": null, "altitudeMode": null, "tessellate": -1, "extrude": 0, "visibility": -1, "drawOrder": null, "icon": null }, "geometry": { "type": "Point", "coordinates": [ 141.1570163, 41.4014162, 0.0 ] } },
{ "type": "Feature", "properties": { "Name": "むつ市大畑町筒万坂地区　R5.8.9", "description": "1頭目撃", "timestamp": null, "begin": null, "end": null, "altitudeMode": null, "tessellate": -1, "extrude": 0, "visibility": -1, "drawOrder": null, "icon": null }, "geometry": { "type": "Point", "coordinates": [ 141.166027, 41.4002543, 0.0 ] } },
{ "type": "Feature", "properties": { "Name": "十和田市米田地区　R5.7.18", "description": "1頭目撃", "timestamp": null, "begin": null, "end": null, "altitudeMode": null, "tessellate": -1, "extrude": 0, "visibility": -1, "drawOrder": null, "icon": null }, "geometry": { "type": "Point", "coordinates": [ 141.281184599999989, 40.5501149, 0.0 ] } },
{ "type": "Feature", "properties": { "Name": "三沢市北山地区　R5.7.18", "description": "1頭目撃", "timestamp": null, "begin": null, "end": null, "altitudeMode": null, "tessellate": -1, "extrude": 0, "visibility": -1, "drawOrder": null, "icon": null }, "geometry": { "type": "Point", "coordinates": [ 141.3986936, 40.7099723, 0.0 ] } },
{ "type": "Feature", "properties": { "Name": "青森市金浜地区　R5.7.20", "description": "1頭目撃", "timestamp": null, "begin": null, "end": null, "altitudeMode": null, "tessellate": -1, "extrude": 0, "visibility": -1, "drawOrder": null, "icon": null }, "geometry": { "type": "Point", "coordinates": [ 140.735791400000011, 40.7689817, 0.0 ] } },